[{"name":"temperature sensor - Hurzuf","description":null,"latitude":44.549999,"longitude":34.283333,"sensorSource":{"name":"OpenWeatherMap","description":null,"id":1,"create_time":"2017-10-25T23:30:37.000-0200"},"id":1,"create_time":"2017-10-25T23:30:37.000-0200"},{"name":"pressure sensor - Hurzuf","description":null,"latitude":44.549999,"longitude":34.283333,"sensorSource":{"name":"OpenWeatherMap","description":null,"id":1,"create_time":"2017-10-25T23:30:37.000-0200"},"id":2,"create_time":"2017-10-25T23:30:37.000-0200"},{"name":"humidity sensor - Hurzuf","description":null,"latitude":44.549999,"longitude":34.283333,"sensorSource":{"name":"OpenWeatherMap","description":null,"id":1,"create_time":"2017-10-25T23:30:37.000-0200"},"id":3,"create_time":"2017-10-25T23:30:37.000-0200"},{"name":"speed_wind sensor - Hurzuf","description":null,"latitude":44.549999,"longitude":34.283333,"sensorSource":{"name":"OpenWeatherMap","description":null,"id":1,"create_time":"2017-10-25T23:30:37.000-0200"},"id":4,"create_time":"2017-10-25T23:30:37.000-0200"},{"name":"temperature sensor - Novinki","description":null,"latitude":55.683334,"longitude":37.666668,"sensorSource":{"name":"OpenWeatherMap","description":null,"id":1,"create_time":"2017-10-25T23:30:37.000-0200"},"id":5,"create_time":"2017-10-25T23:30:37.000-0200"},{"name":"pressure sensor - Novinki","description":null,"latitude":55.683334,"longitude":37.666668,"sensorSource":{"name":"OpenWeatherMap","description":null,"id":1,"create_time":"2017-10-25T23:30:37.000-0200"},"id":6,"create_time":"2017-10-25T23:30:37.000-0200"},{"name":"humidity sensor - Novinki","description":null,"latitude":55.683334,"longitude":37.666668,"sensorSource":{"name":"OpenWeatherMap","description":null,"id":1,"create_time":"2017-10-25T23:30:37.000-0200"},"id":7,"create_time":"2017-10-25T23:30:37.000-0200"},{"name":"speed_wind sensor - Novinki","description":null,"latitude":55.683334,"longitude":37.666668,"sensorSource":{"name":"OpenWeatherMap","description":null,"id":1,"create_time":"2017-10-25T23:30:37.000-0200"},"id":8,"create_time":"2017-10-25T23:30:37.000-0200"},{"name":"temperature sensor - Gorkh?","description":null,"latitude":28.0,"longitude":84.633331,"sensorSource":{"name":"OpenWeatherMap","description":null,"id":1,"create_time":"2017-10-25T23:30:37.000-0200"},"id":9,"create_time":"2017-10-25T23:30:37.000-0200"},{"name":"pressure sensor - Gorkh?","description":null,"latitude":28.0,"longitude":84.633331,"sensorSource":{"name":"OpenWeatherMap","description":null,"id":1,"create_time":"2017-10-25T23:30:37.000-0200"},"id":10,"create_time":"2017-10-25T23:30:37.000-0200"},{"name":"humidity sensor - Gorkh?","description":null,"latitude":28.0,"longitude":84.633331,"sensorSource":{"name":"OpenWeatherMap","description":null,"id":1,"create_time":"2017-10-25T23:30:37.000-0200"},"id":11,"create_time":"2017-10-25T23:30:37.000-0200"},{"name":"speed_wind sensor - Gorkh?","description":null,"latitude":28.0,"longitude":84.633331,"sensorSource":{"name":"OpenWeatherMap","description":null,"id":1,"create_time":"2017-10-25T23:30:37.000-0200"},"id":12,"create_time":"2017-10-25T23:30:37.000-0200"},{"name":"temperature sensor - State of Hary?na","description":null,"latitude":29.0,"longitude":76.0,"sensorSource":{"name":"OpenWeatherMap","description":null,"id":1,"create_time":"2017-10-25T23:30:37.000-0200"},"id":13,"create_time":"2017-10-25T23:30:37.000-0200"},{"name":"pressure sensor - State of Hary?na","description":null,"latitude":29.0,"longitude":76.0,"sensorSource":{"name":"OpenWeatherMap","description":null,"id":1,"create_time":"2017-10-25T23:30:37.000-0200"},"id":14,"create_time":"2017-10-25T23:30:37.000-0200"},{"name":"humidity sensor - State of Hary?na","description":null,"latitude":29.0,"longitude":76.0,"sensorSource":{"name":"OpenWeatherMap","description":null,"id":1,"create_time":"2017-10-25T23:30:37.000-0200"},"id":15,"create_time":"2017-10-25T23:30:37.000-0200"},{"name":"speed_wind sensor - State of Hary?na","description":null,"latitude":29.0,"longitude":76.0,"sensorSource":{"name":"OpenWeatherMap","description":null,"id":1,"create_time":"2017-10-25T23:30:37.000-0200"},"id":16,"create_time":"2017-10-25T23:30:37.000-0200"},{"name":"temperature sensor - Holubynka","description":null,"latitude":44.599998,"longitude":33.900002,"sensorSource":{"name":"OpenWeatherMap","description":null,"id":1,"create_time":"2017-10-25T23:30:37.000-0200"},"id":17,"create_time":"2017-10-25T23:30:37.000-0200"},{"name":"pressure sensor - Holubynka","description":null,"latitude":44.599998,"longitude":33.900002,"sensorSource":{"name":"OpenWeatherMap","description":null,"id":1,"create_time":"2017-10-25T23:30:37.000-0200"},"id":18,"create_time":"2017-10-25T23:30:37.000-0200"},{"name":"humidity sensor - Holubynka","description":null,"latitude":44.599998,"longitude":33.900002,"sensorSource":{"name":"OpenWeatherMap","description":null,"id":1,"create_time":"2017-10-25T23:30:37.000-0200"},"id":19,"create_time":"2017-10-25T23:30:37.000-0200"},{"name":"speed_wind sensor - Holubynka","description":null,"latitude":44.599998,"longitude":33.900002,"sensorSource":{"name":"OpenWeatherMap","description":null,"id":1,"create_time":"2017-10-25T23:30:37.000-0200"},"id":20,"create_time":"2017-10-25T23:30:37.000-0200"},{"name":"temperature sensor - B?gmat? Zone","description":null,"latitude":28.0,"longitude":85.416664,"sensorSource":{"name":"OpenWeatherMap","description":null,"id":1,"create_time":"2017-10-25T23:30:37.000-0200"},"id":21,"create_time":"2017-10-25T23:30:37.000-0200"},{"name":"pressure sensor - B?gmat? Zone","description":null,"latitude":28.0,"longitude":85.416664,"sensorSource":{"name":"OpenWeatherMap","description":null,"id":1,"create_time":"2017-10-25T23:30:37.000-0200"},"id":22,"create_time":"2017-10-25T23:30:37.000-0200"},{"name":"humidity sensor - B?gmat? Zone","description":null,"latitude":28.0,"longitude":85.416664,"sensorSource":{"name":"OpenWeatherMap","description":null,"id":1,"create_time":"2017-10-25T23:30:37.000-0200"},"id":23,"create_time":"2017-10-25T23:30:37.000-0200"},{"name":"speed_wind sensor - B?gmat? Zone","description":null,"latitude":28.0,"longitude":85.416664,"sensorSource":{"name":"OpenWeatherMap","description":null,"id":1,"create_time":"2017-10-25T23:30:37.000-0200"},"id":24,"create_time":"2017-10-25T23:30:37.000-0200"},{"name":"temperature sensor - Mar’ina Roshcha","description":null,"latitude":55.796391,"longitude":37.611111,"sensorSource":{"name":"OpenWeatherMap","description":null,"id":1,"create_time":"2017-10-25T23:30:37.000-0200"},"id":25,"create_time":"2017-10-25T23:30:37.000-0200"},{"name":"pressure sensor - Mar’ina Roshcha","description":null,"latitude":55.796391,"longitude":37.611111,"sensorSource":{"name":"OpenWeatherMap","description":null,"id":1,"create_time":"2017-10-25T23:30:37.000-0200"},"id":26,"create_time":"2017-10-25T23:30:37.000-0200"},{"name":"humidity sensor - Mar’ina Roshcha","description":null,"latitude":55.796391,"longitude":37.611111,"sensorSource":{"name":"OpenWeatherMap","description":null,"id":1,"create_time":"2017-10-25T23:30:37.000-0200"},"id":27,"create_time":"2017-10-25T23:30:37.000-0200"},{"name":"speed_wind sensor - Mar’ina Roshcha","description":null,"latitude":55.796391,"longitude":37.611111,"sensorSource":{"name":"OpenWeatherMap","description":null,"id":1,"create_time":"2017-10-25T23:30:37.000-0200"},"id":28,"create_time":"2017-10-25T23:30:37.000-0200"},{"name":"temperature sensor - Republic of India","description":null,"latitude":20.0,"longitude":77.0,"sensorSource":{"name":"OpenWeatherMap","description":null,"id":1,"create_time":"2017-10-25T23:30:37.000-0200"},"id":29,"create_time":"2017-10-25T23:30:37.000-0200"},{"name":"pressure sensor - Republic of India","description":null,"latitude":20.0,"longitude":77.0,"sensorSource":{"name":"OpenWeatherMap","description":null,"id":1,"create_time":"2017-10-25T23:30:37.000-0200"},"id":30,"create_time":"2017-10-25T23:30:37.000-0200"},{"name":"humidity sensor - Republic of India","description":null,"latitude":20.0,"longitude":77.0,"sensorSource":{"name":"OpenWeatherMap","description":null,"id":1,"create_time":"2017-10-25T23:30:37.000-0200"},"id":31,"create_time":"2017-10-25T23:30:37.000-0200"},{"name":"speed_wind sensor - Republic of India","description":null,"latitude":20.0,"longitude":77.0,"sensorSource":{"name":"OpenWeatherMap","description":null,"id":1,"create_time":"2017-10-25T23:30:37.000-0200"},"id":32,"create_time":"2017-10-25T23:30:37.000-0200"},{"name":"temperature sensor - Kathmandu","description":null,"latitude":27.716667,"longitude":85.316666,"sensorSource":{"name":"OpenWeatherMap","description":null,"id":1,"create_time":"2017-10-25T23:30:37.000-0200"},"id":33,"create_time":"2017-10-25T23:30:37.000-0200"},{"name":"pressure sensor - Kathmandu","description":null,"latitude":27.716667,"longitude":85.316666,"sensorSource":{"name":"OpenWeatherMap","description":null,"id":1,"create_time":"2017-10-25T23:30:37.000-0200"},"id":34,"create_time":"2017-10-25T23:30:37.000-0200"},{"name":"humidity sensor - Kathmandu","description":null,"latitude":27.716667,"longitude":85.316666,"sensorSource":{"name":"OpenWeatherMap","description":null,"id":1,"create_time":"2017-10-25T23:30:37.000-0200"},"id":35,"create_time":"2017-10-25T23:30:37.000-0200"},{"name":"speed_wind sensor - Kathmandu","description":null,"latitude":27.716667,"longitude":85.316666,"sensorSource":{"name":"OpenWeatherMap","description":null,"id":1,"create_time":"2017-10-25T23:30:37.000-0200"},"id":36,"create_time":"2017-10-25T23:30:37.000-0200"},{"name":"temperature sensor - Laspi","description":null,"latitude":44.416668,"longitude":33.733334,"sensorSource":{"name":"OpenWeatherMap","description":null,"id":1,"create_time":"2017-10-25T23:30:37.000-0200"},"id":37,"create_time":"2017-10-25T23:30:37.000-0200"},{"name":"pressure sensor - Laspi","description":null,"latitude":44.416668,"longitude":33.733334,"sensorSource":{"name":"OpenWeatherMap","description":null,"id":1,"create_time":"2017-10-25T23:30:37.000-0200"},"id":38,"create_time":"2017-10-25T23:30:37.000-0200"},{"name":"humidity sensor - Laspi","description":null,"latitude":44.416668,"longitude":33.733334,"sensorSource":{"name":"OpenWeatherMap","description":null,"id":1,"create_time":"2017-10-25T23:30:37.000-0200"},"id":39,"create_time":"2017-10-25T23:30:37.000-0200"},{"name":"speed_wind sensor - Laspi","description":null,"latitude":44.416668,"longitude":33.733334,"sensorSource":{"name":"OpenWeatherMap","description":null,"id":1,"create_time":"2017-10-25T23:30:37.000-0200"},"id":40,"create_time":"2017-10-25T23:30:37.000-0200"},{"name":"temperature sensor - Merida","description":null,"latitude":8.598333,"longitude":-71.144997,"sensorSource":{"name":"OpenWeatherMap","description":null,"id":1,"create_time":"2017-10-25T23:30:37.000-0200"},"id":41,"create_time":"2017-10-25T23:30:37.000-0200"},{"name":"pressure sensor - Merida","description":null,"latitude":8.598333,"longitude":-71.144997,"sensorSource":{"name":"OpenWeatherMap","description":null,"id":1,"create_time":"2017-10-25T23:30:37.000-0200"},"id":42,"create_time":"2017-10-25T23:30:37.000-0200"},{"name":"humidity sensor - Merida","description":null,"latitude":8.598333,"longitude":-71.144997,"sensorSource":{"name":"OpenWeatherMap","description":null,"id":1,"create_time":"2017-10-25T23:30:37.000-0200"},"id":43,"create_time":"2017-10-25T23:30:37.000-0200"},{"name":"speed_wind sensor - Merida","description":null,"latitude":8.598333,"longitude":-71.144997,"sensorSource":{"name":"OpenWeatherMap","description":null,"id":1,"create_time":"2017-10-25T23:30:37.000-0200"},"id":44,"create_time":"2017-10-25T23:30:37.000-0200"},{"name":"temperature sensor - Vinogradovo","description":null,"latitude":55.423332,"longitude":38.545555,"sensorSource":{"name":"OpenWeatherMap","description":null,"id":1,"create_time":"2017-10-25T23:30:37.000-0200"},"id":45,"create_time":"2017-10-25T23:30:38.000-0200"},{"name":"pressure sensor - Vinogradovo","description":null,"latitude":55.423332,"longitude":38.545555,"sensorSource":{"name":"OpenWeatherMap","description":null,"id":1,"create_time":"2017-10-25T23:30:37.000-0200"},"id":46,"create_time":"2017-10-25T23:30:38.000-0200"},{"name":"humidity sensor - Vinogradovo","description":null,"latitude":55.423332,"longitude":38.545555,"sensorSource":{"name":"OpenWeatherMap","description":null,"id":1,"create_time":"2017-10-25T23:30:37.000-0200"},"id":47,"create_time":"2017-10-25T23:30:38.000-0200"},{"name":"speed_wind sensor - Vinogradovo","description":null,"latitude":55.423332,"longitude":38.545555,"sensorSource":{"name":"OpenWeatherMap","description":null,"id":1,"create_time":"2017-10-25T23:30:37.000-0200"},"id":48,"create_time":"2017-10-25T23:30:38.000-0200"},{"name":"temperature sensor - Qarah Gawl al ‘Uly?","description":null,"latitude":35.353889,"longitude":45.6325,"sensorSource":{"name":"OpenWeatherMap","description":null,"id":1,"create_time":"2017-10-25T23:30:37.000-0200"},"id":49,"create_time":"2017-10-25T23:30:38.000-0200"},{"name":"pressure sensor - Qarah Gawl al ‘Uly?","description":null,"latitude":35.353889,"longitude":45.6325,"sensorSource":{"name":"OpenWeatherMap","description":null,"id":1,"create_time":"2017-10-25T23:30:37.000-0200"},"id":50,"create_time":"2017-10-25T23:30:38.000-0200"},{"name":"humidity sensor - Qarah Gawl al ‘Uly?","description":null,"latitude":35.353889,"longitude":45.6325,"sensorSource":{"name":"OpenWeatherMap","description":null,"id":1,"create_time":"2017-10-25T23:30:37.000-0200"},"id":51,"create_time":"2017-10-25T23:30:38.000-0200"},{"name":"speed_wind sensor - Qarah Gawl al ‘Uly?","description":null,"latitude":35.353889,"longitude":45.6325,"sensorSource":{"name":"OpenWeatherMap","description":null,"id":1,"create_time":"2017-10-25T23:30:37.000-0200"},"id":52,"create_time":"2017-10-25T23:30:38.000-0200"},{"name":"temperature sensor - Cherkizovo","description":null,"latitude":55.800835,"longitude":37.728889,"sensorSource":{"name":"OpenWeatherMap","description":null,"id":1,"create_time":"2017-10-25T23:30:37.000-0200"},"id":53,"create_time":"2017-10-25T23:30:38.000-0200"},{"name":"pressure sensor - Cherkizovo","description":null,"latitude":55.800835,"longitude":37.728889,"sensorSource":{"name":"OpenWeatherMap","description":null,"id":1,"create_time":"2017-10-25T23:30:37.000-0200"},"id":54,"create_time":"2017-10-25T23:30:38.000-0200"},{"name":"humidity sensor - Cherkizovo","description":null,"latitude":55.800835,"longitude":37.728889,"sensorSource":{"name":"OpenWeatherMap","description":null,"id":1,"create_time":"2017-10-25T23:30:37.000-0200"},"id":55,"create_time":"2017-10-25T23:30:38.000-0200"},{"name":"speed_wind sensor - Cherkizovo","description":null,"latitude":55.800835,"longitude":37.728889,"sensorSource":{"name":"OpenWeatherMap","description":null,"id":1,"create_time":"2017-10-25T23:30:37.000-0200"},"id":56,"create_time":"2017-10-25T23:30:38.000-0200"},{"name":"temperature sensor - Alupka","description":null,"latitude":44.416668,"longitude":34.049999,"sensorSource":{"name":"OpenWeatherMap","description":null,"id":1,"create_time":"2017-10-25T23:30:37.000-0200"},"id":57,"create_time":"2017-10-25T23:30:38.000-0200"},{"name":"pressure sensor - Alupka","description":null,"latitude":44.416668,"longitude":34.049999,"sensorSource":{"name":"OpenWeatherMap","description":null,"id":1,"create_time":"2017-10-25T23:30:37.000-0200"},"id":58,"create_time":"2017-10-25T23:30:38.000-0200"},{"name":"humidity sensor - Alupka","description":null,"latitude":44.416668,"longitude":34.049999,"sensorSource":{"name":"OpenWeatherMap","description":null,"id":1,"create_time":"2017-10-25T23:30:37.000-0200"},"id":59,"create_time":"2017-10-25T23:30:38.000-0200"},{"name":"speed_wind sensor - Alupka","description":null,"latitude":44.416668,"longitude":34.049999,"sensorSource":{"name":"OpenWeatherMap","description":null,"id":1,"create_time":"2017-10-25T23:30:37.000-0200"},"id":60,"create_time":"2017-10-25T23:30:38.000-0200"},{"name":"temperature sensor - Lichtenrade","description":null,"latitude":52.398441,"longitude":13.40637,"sensorSource":{"name":"OpenWeatherMap","description":null,"id":1,"create_time":"2017-10-25T23:30:37.000-0200"},"id":61,"create_time":"2017-10-25T23:30:38.000-0200"},{"name":"pressure sensor - Lichtenrade","description":null,"latitude":52.398441,"longitude":13.40637,"sensorSource":{"name":"OpenWeatherMap","description":null,"id":1,"create_time":"2017-10-25T23:30:37.000-0200"},"id":62,"create_time":"2017-10-25T23:30:38.000-0200"},{"name":"humidity sensor - Lichtenrade","description":null,"latitude":52.398441,"longitude":13.40637,"sensorSource":{"name":"OpenWeatherMap","description":null,"id":1,"create_time":"2017-10-25T23:30:37.000-0200"},"id":63,"create_time":"2017-10-25T23:30:38.000-0200"},{"name":"speed_wind sensor - Lichtenrade","description":null,"latitude":52.398441,"longitude":13.40637,"sensorSource":{"name":"OpenWeatherMap","description":null,"id":1,"create_time":"2017-10-25T23:30:37.000-0200"},"id":64,"create_time":"2017-10-25T23:30:38.000-0200"},{"name":"temperature sensor - Zavety Il’icha","description":null,"latitude":56.049999,"longitude":37.849998,"sensorSource":{"name":"OpenWeatherMap","description":null,"id":1,"create_time":"2017-10-25T23:30:37.000-0200"},"id":65,"create_time":"2017-10-25T23:30:38.000-0200"},{"name":"pressure sensor - Zavety Il’icha","description":null,"latitude":56.049999,"longitude":37.849998,"sensorSource":{"name":"OpenWeatherMap","description":null,"id":1,"create_time":"2017-10-25T23:30:37.000-0200"},"id":66,"create_time":"2017-10-25T23:30:38.000-0200"},{"name":"humidity sensor - Zavety Il’icha","description":null,"latitude":56.049999,"longitude":37.849998,"sensorSource":{"name":"OpenWeatherMap","description":null,"id":1,"create_time":"2017-10-25T23:30:37.000-0200"},"id":67,"create_time":"2017-10-25T23:30:38.000-0200"},{"name":"speed_wind sensor - Zavety Il’icha","description":null,"latitude":56.049999,"longitude":37.849998,"sensorSource":{"name":"OpenWeatherMap","description":null,"id":1,"create_time":"2017-10-25T23:30:37.000-0200"},"id":68,"create_time":"2017-10-25T23:30:38.000-0200"},{"name":"temperature sensor - ‘Azriqam","description":null,"latitude":31.75,"longitude":34.700001,"sensorSource":{"name":"OpenWeatherMap","description":null,"id":1,"create_time":"2017-10-25T23:30:37.000-0200"},"id":69,"create_time":"2017-10-25T23:30:38.000-0200"},{"name":"pressure sensor - ‘Azriqam","description":null,"latitude":31.75,"longitude":34.700001,"sensorSource":{"name":"OpenWeatherMap","description":null,"id":1,"create_time":"2017-10-25T23:30:37.000-0200"},"id":70,"create_time":"2017-10-25T23:30:38.000-0200"},{"name":"humidity sensor - ‘Azriqam","description":null,"latitude":31.75,"longitude":34.700001,"sensorSource":{"name":"OpenWeatherMap","description":null,"id":1,"create_time":"2017-10-25T23:30:37.000-0200"},"id":71,"create_time":"2017-10-25T23:30:38.000-0200"},{"name":"speed_wind sensor - ‘Azriqam","description":null,"latitude":31.75,"longitude":34.700001,"sensorSource":{"name":"OpenWeatherMap","description":null,"id":1,"create_time":"2017-10-25T23:30:37.000-0200"},"id":72,"create_time":"2017-10-25T23:30:38.000-0200"},{"name":"temperature sensor - Gh?ra","description":null,"latitude":24.766666,"longitude":79.883331,"sensorSource":{"name":"OpenWeatherMap","description":null,"id":1,"create_time":"2017-10-25T23:30:37.000-0200"},"id":73,"create_time":"2017-10-25T23:30:38.000-0200"},{"name":"pressure sensor - Gh?ra","description":null,"latitude":24.766666,"longitude":79.883331,"sensorSource":{"name":"OpenWeatherMap","description":null,"id":1,"create_time":"2017-10-25T23:30:37.000-0200"},"id":74,"create_time":"2017-10-25T23:30:38.000-0200"},{"name":"humidity sensor - Gh?ra","description":null,"latitude":24.766666,"longitude":79.883331,"sensorSource":{"name":"OpenWeatherMap","description":null,"id":1,"create_time":"2017-10-25T23:30:37.000-0200"},"id":75,"create_time":"2017-10-25T23:30:38.000-0200"},{"name":"speed_wind sensor - Gh?ra","description":null,"latitude":24.766666,"longitude":79.883331,"sensorSource":{"name":"OpenWeatherMap","description":null,"id":1,"create_time":"2017-10-25T23:30:37.000-0200"},"id":76,"create_time":"2017-10-25T23:30:38.000-0200"},{"name":"temperature sensor - Tyuzler","description":null,"latitude":44.466667,"longitude":34.083332,"sensorSource":{"name":"OpenWeatherMap","description":null,"id":1,"create_time":"2017-10-25T23:30:37.000-0200"},"id":77,"create_time":"2017-10-25T23:30:38.000-0200"},{"name":"pressure sensor - Tyuzler","description":null,"latitude":44.466667,"longitude":34.083332,"sensorSource":{"name":"OpenWeatherMap","description":null,"id":1,"create_time":"2017-10-25T23:30:37.000-0200"},"id":78,"create_time":"2017-10-25T23:30:38.000-0200"},{"name":"humidity sensor - Tyuzler","description":null,"latitude":44.466667,"longitude":34.083332,"sensorSource":{"name":"OpenWeatherMap","description":null,"id":1,"create_time":"2017-10-25T23:30:37.000-0200"},"id":79,"create_time":"2017-10-25T23:30:38.000-0200"},{"name":"speed_wind sensor - Tyuzler","description":null,"latitude":44.466667,"longitude":34.083332,"sensorSource":{"name":"OpenWeatherMap","description":null,"id":1,"create_time":"2017-10-25T23:30:37.000-0200"},"id":80,"create_time":"2017-10-25T23:30:38.000-0200"},{"name":"temperature sensor - Zaponor’ye","description":null,"latitude":55.639999,"longitude":38.861942,"sensorSource":{"name":"OpenWeatherMap","description":null,"id":1,"create_time":"2017-10-25T23:30:37.000-0200"},"id":81,"create_time":"2017-10-25T23:30:38.000-0200"},{"name":"pressure sensor - Zaponor’ye","description":null,"latitude":55.639999,"longitude":38.861942,"sensorSource":{"name":"OpenWeatherMap","description":null,"id":1,"create_time":"2017-10-25T23:30:37.000-0200"},"id":82,"create_time":"2017-10-25T23:30:38.000-0200"},{"name":"humidity sensor - Zaponor’ye","description":null,"latitude":55.639999,"longitude":38.861942,"sensorSource":{"name":"OpenWeatherMap","description":null,"id":1,"create_time":"2017-10-25T23:30:37.000-0200"},"id":83,"create_time":"2017-10-25T23:30:38.000-0200"},{"name":"speed_wind sensor - Zaponor’ye","description":null,"latitude":55.639999,"longitude":38.861942,"sensorSource":{"name":"OpenWeatherMap","description":null,"id":1,"create_time":"2017-10-25T23:30:37.000-0200"},"id":84,"create_time":"2017-10-25T23:30:38.000-0200"},{"name":"temperature sensor - Il’ichëvka","description":null,"latitude":44.666668,"longitude":34.383331,"sensorSource":{"name":"OpenWeatherMap","description":null,"id":1,"create_time":"2017-10-25T23:30:37.000-0200"},"id":85,"create_time":"2017-10-25T23:30:38.000-0200"},{"name":"pressure sensor - Il’ichëvka","description":null,"latitude":44.666668,"longitude":34.383331,"sensorSource":{"name":"OpenWeatherMap","description":null,"id":1,"create_time":"2017-10-25T23:30:37.000-0200"},"id":86,"create_time":"2017-10-25T23:30:38.000-0200"},{"name":"humidity sensor - Il’ichëvka","description":null,"latitude":44.666668,"longitude":34.383331,"sensorSource":{"name":"OpenWeatherMap","description":null,"id":1,"create_time":"2017-10-25T23:30:37.000-0200"},"id":87,"create_time":"2017-10-25T23:30:38.000-0200"},{"name":"speed_wind sensor - Il’ichëvka","description":null,"latitude":44.666668,"longitude":34.383331,"sensorSource":{"name":"OpenWeatherMap","description":null,"id":1,"create_time":"2017-10-25T23:30:37.000-0200"},"id":88,"create_time":"2017-10-25T23:30:38.000-0200"},{"name":"temperature sensor - Partyzans’ke","description":null,"latitude":44.833332,"longitude":34.083332,"sensorSource":{"name":"OpenWeatherMap","description":null,"id":1,"create_time":"2017-10-25T23:30:37.000-0200"},"id":89,"create_time":"2017-10-25T23:30:38.000-0200"},{"name":"pressure sensor - Partyzans’ke","description":null,"latitude":44.833332,"longitude":34.083332,"sensorSource":{"name":"OpenWeatherMap","description":null,"id":1,"create_time":"2017-10-25T23:30:37.000-0200"},"id":90,"create_time":"2017-10-25T23:30:38.000-0200"},{"name":"humidity sensor - Partyzans’ke","description":null,"latitude":44.833332,"longitude":34.083332,"sensorSource":{"name":"OpenWeatherMap","description":null,"id":1,"create_time":"2017-10-25T23:30:37.000-0200"},"id":91,"create_time":"2017-10-25T23:30:38.000-0200"},{"name":"speed_wind sensor - Partyzans’ke","description":null,"latitude":44.833332,"longitude":34.083332,"sensorSource":{"name":"OpenWeatherMap","description":null,"id":1,"create_time":"2017-10-25T23:30:37.000-0200"},"id":92,"create_time":"2017-10-25T23:30:38.000-0200"},{"name":"temperature sensor - Yurevichi","description":null,"latitude":43.600555,"longitude":39.934444,"sensorSource":{"name":"OpenWeatherMap","description":null,"id":1,"create_time":"2017-10-25T23:30:37.000-0200"},"id":93,"create_time":"2017-10-25T23:30:38.000-0200"},{"name":"pressure sensor - Yurevichi","description":null,"latitude":43.600555,"longitude":39.934444,"sensorSource":{"name":"OpenWeatherMap","description":null,"id":1,"create_time":"2017-10-25T23:30:37.000-0200"},"id":94,"create_time":"2017-10-25T23:30:38.000-0200"},{"name":"humidity sensor - Yurevichi","description":null,"latitude":43.600555,"longitude":39.934444,"sensorSource":{"name":"OpenWeatherMap","description":null,"id":1,"create_time":"2017-10-25T23:30:37.000-0200"},"id":95,"create_time":"2017-10-25T23:30:38.000-0200"},{"name":"speed_wind sensor - Yurevichi","description":null,"latitude":43.600555,"longitude":39.934444,"sensorSource":{"name":"OpenWeatherMap","description":null,"id":1,"create_time":"2017-10-25T23:30:37.000-0200"},"id":96,"create_time":"2017-10-25T23:30:38.000-0200"},{"name":"temperature sensor - Gumist’a","description":null,"latitude":43.026943,"longitude":40.973888,"sensorSource":{"name":"OpenWeatherMap","description":null,"id":1,"create_time":"2017-10-25T23:30:37.000-0200"},"id":97,"create_time":"2017-10-25T23:30:38.000-0200"},{"name":"pressure sensor - Gumist’a","description":null,"latitude":43.026943,"longitude":40.973888,"sensorSource":{"name":"OpenWeatherMap","description":null,"id":1,"create_time":"2017-10-25T23:30:37.000-0200"},"id":98,"create_time":"2017-10-25T23:30:38.000-0200"},{"name":"humidity sensor - Gumist’a","description":null,"latitude":43.026943,"longitude":40.973888,"sensorSource":{"name":"OpenWeatherMap","description":null,"id":1,"create_time":"2017-10-25T23:30:37.000-0200"},"id":99,"create_time":"2017-10-25T23:30:38.000-0200"},{"name":"speed_wind sensor - Gumist’a","description":null,"latitude":43.026943,"longitude":40.973888,"sensorSource":{"name":"OpenWeatherMap","description":null,"id":1,"create_time":"2017-10-25T23:30:37.000-0200"},"id":100,"create_time":"2017-10-25T23:30:38.000-0200"},{"name":"temperature sensor - Ptitsefabrika","description":null,"latitude":43.183613,"longitude":40.290558,"sensorSource":{"name":"OpenWeatherMap","description":null,"id":1,"create_time":"2017-10-25T23:30:37.000-0200"},"id":101,"create_time":"2017-10-25T23:30:38.000-0200"},{"name":"pressure sensor - Ptitsefabrika","description":null,"latitude":43.183613,"longitude":40.290558,"sensorSource":{"name":"OpenWeatherMap","description":null,"id":1,"create_time":"2017-10-25T23:30:37.000-0200"},"id":102,"create_time":"2017-10-25T23:30:38.000-0200"},{"name":"humidity sensor - Ptitsefabrika","description":null,"latitude":43.183613,"longitude":40.290558,"sensorSource":{"name":"OpenWeatherMap","description":null,"id":1,"create_time":"2017-10-25T23:30:37.000-0200"},"id":103,"create_time":"2017-10-25T23:30:38.000-0200"},{"name":"speed_wind sensor - Ptitsefabrika","description":null,"latitude":43.183613,"longitude":40.290558,"sensorSource":{"name":"OpenWeatherMap","description":null,"id":1,"create_time":"2017-10-25T23:30:37.000-0200"},"id":104,"create_time":"2017-10-25T23:30:38.000-0200"},{"name":"temperature sensor - Orekhovo","description":null,"latitude":43.351391,"longitude":40.146111,"sensorSource":{"name":"OpenWeatherMap","description":null,"id":1,"create_time":"2017-10-25T23:30:37.000-0200"},"id":105,"create_time":"2017-10-25T23:30:38.000-0200"},{"name":"pressure sensor - Orekhovo","description":null,"latitude":43.351391,"longitude":40.146111,"sensorSource":{"name":"OpenWeatherMap","description":null,"id":1,"create_time":"2017-10-25T23:30:37.000-0200"},"id":106,"create_time":"2017-10-25T23:30:38.000-0200"},{"name":"humidity sensor - Orekhovo","description":null,"latitude":43.351391,"longitude":40.146111,"sensorSource":{"name":"OpenWeatherMap","description":null,"id":1,"create_time":"2017-10-25T23:30:37.000-0200"},"id":107,"create_time":"2017-10-25T23:30:38.000-0200"},{"name":"speed_wind sensor - Orekhovo","description":null,"latitude":43.351391,"longitude":40.146111,"sensorSource":{"name":"OpenWeatherMap","description":null,"id":1,"create_time":"2017-10-25T23:30:37.000-0200"},"id":108,"create_time":"2017-10-25T23:30:38.000-0200"},{"name":"temperature sensor - Birim","description":null,"latitude":10.062094,"longitude":9.997027,"sensorSource":{"name":"OpenWeatherMap","description":null,"id":1,"create_time":"2017-10-25T23:30:37.000-0200"},"id":109,"create_time":"2017-10-25T23:30:38.000-0200"},{"name":"pressure sensor - Birim","description":null,"latitude":10.062094,"longitude":9.997027,"sensorSource":{"name":"OpenWeatherMap","description":null,"id":1,"create_time":"2017-10-25T23:30:37.000-0200"},"id":110,"create_time":"2017-10-25T23:30:38.000-0200"},{"name":"humidity sensor - Birim","description":null,"latitude":10.062094,"longitude":9.997027,"sensorSource":{"name":"OpenWeatherMap","description":null,"id":1,"create_time":"2017-10-25T23:30:37.000-0200"},"id":111,"create_time":"2017-10-25T23:30:38.000-0200"},{"name":"speed_wind sensor - Birim","description":null,"latitude":10.062094,"longitude":9.997027,"sensorSource":{"name":"OpenWeatherMap","description":null,"id":1,"create_time":"2017-10-25T23:30:37.000-0200"},"id":112,"create_time":"2017-10-25T23:30:38.000-0200"},{"name":"temperature sensor - Priiskovyy","description":null,"latitude":42.819168,"longitude":132.822495,"sensorSource":{"name":"OpenWeatherMap","description":null,"id":1,"create_time":"2017-10-25T23:30:37.000-0200"},"id":113,"create_time":"2017-10-25T23:30:38.000-0200"},{"name":"pressure sensor - Priiskovyy","description":null,"latitude":42.819168,"longitude":132.822495,"sensorSource":{"name":"OpenWeatherMap","description":null,"id":1,"create_time":"2017-10-25T23:30:37.000-0200"},"id":114,"create_time":"2017-10-25T23:30:38.000-0200"},{"name":"humidity sensor - Priiskovyy","description":null,"latitude":42.819168,"longitude":132.822495,"sensorSource":{"name":"OpenWeatherMap","description":null,"id":1,"create_time":"2017-10-25T23:30:37.000-0200"},"id":115,"create_time":"2017-10-25T23:30:38.000-0200"},{"name":"speed_wind sensor - Priiskovyy","description":null,"latitude":42.819168,"longitude":132.822495,"sensorSource":{"name":"OpenWeatherMap","description":null,"id":1,"create_time":"2017-10-25T23:30:37.000-0200"},"id":116,"create_time":"2017-10-25T23:30:38.000-0200"},{"name":"temperature sensor - Dzhaga","description":null,"latitude":43.25,"longitude":42.650002,"sensorSource":{"name":"OpenWeatherMap","description":null,"id":1,"create_time":"2017-10-25T23:30:37.000-0200"},"id":117,"create_time":"2017-10-25T23:30:38.000-0200"},{"name":"pressure sensor - Dzhaga","description":null,"latitude":43.25,"longitude":42.650002,"sensorSource":{"name":"OpenWeatherMap","description":null,"id":1,"create_time":"2017-10-25T23:30:37.000-0200"},"id":118,"create_time":"2017-10-25T23:30:38.000-0200"},{"name":"humidity sensor - Dzhaga","description":null,"latitude":43.25,"longitude":42.650002,"sensorSource":{"name":"OpenWeatherMap","description":null,"id":1,"create_time":"2017-10-25T23:30:37.000-0200"},"id":119,"create_time":"2017-10-25T23:30:38.000-0200"},{"name":"speed_wind sensor - Dzhaga","description":null,"latitude":43.25,"longitude":42.650002,"sensorSource":{"name":"OpenWeatherMap","description":null,"id":1,"create_time":"2017-10-25T23:30:37.000-0200"},"id":120,"create_time":"2017-10-25T23:30:38.000-0200"},{"name":"temperature sensor - Tret’ya Rota","description":null,"latitude":43.741943,"longitude":39.681389,"sensorSource":{"name":"OpenWeatherMap","description":null,"id":1,"create_time":"2017-10-25T23:30:37.000-0200"},"id":121,"create_time":"2017-10-25T23:30:38.000-0200"},{"name":"pressure sensor - Tret’ya Rota","description":null,"latitude":43.741943,"longitude":39.681389,"sensorSource":{"name":"OpenWeatherMap","description":null,"id":1,"create_time":"2017-10-25T23:30:37.000-0200"},"id":122,"create_time":"2017-10-25T23:30:38.000-0200"},{"name":"humidity sensor - Tret’ya Rota","description":null,"latitude":43.741943,"longitude":39.681389,"sensorSource":{"name":"OpenWeatherMap","description":null,"id":1,"create_time":"2017-10-25T23:30:37.000-0200"},"id":123,"create_time":"2017-10-25T23:30:38.000-0200"},{"name":"speed_wind sensor - Tret’ya Rota","description":null,"latitude":43.741943,"longitude":39.681389,"sensorSource":{"name":"OpenWeatherMap","description":null,"id":1,"create_time":"2017-10-25T23:30:37.000-0200"},"id":124,"create_time":"2017-10-25T23:30:38.000-0200"},{"name":"temperature sensor - Ruislip","description":null,"latitude":51.573441,"longitude":-0.42341,"sensorSource":{"name":"OpenWeatherMap","description":null,"id":1,"create_time":"2017-10-25T23:30:37.000-0200"},"id":125,"create_time":"2017-10-25T23:30:38.000-0200"},{"name":"pressure sensor - Ruislip","description":null,"latitude":51.573441,"longitude":-0.42341,"sensorSource":{"name":"OpenWeatherMap","description":null,"id":1,"create_time":"2017-10-25T23:30:37.000-0200"},"id":126,"create_time":"2017-10-25T23:30:38.000-0200"},{"name":"humidity sensor - Ruislip","description":null,"latitude":51.573441,"longitude":-0.42341,"sensorSource":{"name":"OpenWeatherMap","description":null,"id":1,"create_time":"2017-10-25T23:30:37.000-0200"},"id":127,"create_time":"2017-10-25T23:30:38.000-0200"},{"name":"speed_wind sensor - Ruislip","description":null,"latitude":51.573441,"longitude":-0.42341,"sensorSource":{"name":"OpenWeatherMap","description":null,"id":1,"create_time":"2017-10-25T23:30:37.000-0200"},"id":128,"create_time":"2017-10-25T23:30:38.000-0200"},{"name":"temperature sensor - Karow","description":null,"latitude":52.609039,"longitude":13.48117,"sensorSource":{"name":"OpenWeatherMap","description":null,"id":1,"create_time":"2017-10-25T23:30:37.000-0200"},"id":129,"create_time":"2017-10-25T23:30:38.000-0200"},{"name":"pressure sensor - Karow","description":null,"latitude":52.609039,"longitude":13.48117,"sensorSource":{"name":"OpenWeatherMap","description":null,"id":1,"create_time":"2017-10-25T23:30:37.000-0200"},"id":130,"create_time":"2017-10-25T23:30:38.000-0200"},{"name":"humidity sensor - Karow","description":null,"latitude":52.609039,"longitude":13.48117,"sensorSource":{"name":"OpenWeatherMap","description":null,"id":1,"create_time":"2017-10-25T23:30:37.000-0200"},"id":131,"create_time":"2017-10-25T23:30:38.000-0200"},{"name":"speed_wind sensor - Karow","description":null,"latitude":52.609039,"longitude":13.48117,"sensorSource":{"name":"OpenWeatherMap","description":null,"id":1,"create_time":"2017-10-25T23:30:37.000-0200"},"id":132,"create_time":"2017-10-25T23:30:38.000-0200"},{"name":"temperature sensor - Gatow","description":null,"latitude":52.483238,"longitude":13.18285,"sensorSource":{"name":"OpenWeatherMap","description":null,"id":1,"create_time":"2017-10-25T23:30:37.000-0200"},"id":133,"create_time":"2017-10-25T23:30:38.000-0200"},{"name":"pressure sensor - Gatow","description":null,"latitude":52.483238,"longitude":13.18285,"sensorSource":{"name":"OpenWeatherMap","description":null,"id":1,"create_time":"2017-10-25T23:30:37.000-0200"},"id":134,"create_time":"2017-10-25T23:30:38.000-0200"},{"name":"humidity sensor - Gatow","description":null,"latitude":52.483238,"longitude":13.18285,"sensorSource":{"name":"OpenWeatherMap","description":null,"id":1,"create_time":"2017-10-25T23:30:37.000-0200"},"id":135,"create_time":"2017-10-25T23:30:38.000-0200"},{"name":"speed_wind sensor - Gatow","description":null,"latitude":52.483238,"longitude":13.18285,"sensorSource":{"name":"OpenWeatherMap","description":null,"id":1,"create_time":"2017-10-25T23:30:37.000-0200"},"id":136,"create_time":"2017-10-25T23:30:38.000-0200"},{"name":"temperature sensor - Mkuze","description":null,"latitude":-27.616409,"longitude":32.038609,"sensorSource":{"name":"OpenWeatherMap","description":null,"id":1,"create_time":"2017-10-25T23:30:37.000-0200"},"id":137,"create_time":"2017-10-25T23:30:38.000-0200"},{"name":"pressure sensor - Mkuze","description":null,"latitude":-27.616409,"longitude":32.038609,"sensorSource":{"name":"OpenWeatherMap","description":null,"id":1,"create_time":"2017-10-25T23:30:37.000-0200"},"id":138,"create_time":"2017-10-25T23:30:38.000-0200"},{"name":"humidity sensor - Mkuze","description":null,"latitude":-27.616409,"longitude":32.038609,"sensorSource":{"name":"OpenWeatherMap","description":null,"id":1,"create_time":"2017-10-25T23:30:37.000-0200"},"id":139,"create_time":"2017-10-25T23:30:38.000-0200"},{"name":"speed_wind sensor - Mkuze","description":null,"latitude":-27.616409,"longitude":32.038609,"sensorSource":{"name":"OpenWeatherMap","description":null,"id":1,"create_time":"2017-10-25T23:30:37.000-0200"},"id":140,"create_time":"2017-10-25T23:30:38.000-0200"},{"name":"temperature sensor - Lhasa","description":null,"latitude":29.65,"longitude":91.099998,"sensorSource":{"name":"OpenWeatherMap","description":null,"id":1,"create_time":"2017-10-25T23:30:37.000-0200"},"id":141,"create_time":"2017-10-25T23:30:38.000-0200"},{"name":"pressure sensor - Lhasa","description":null,"latitude":29.65,"longitude":91.099998,"sensorSource":{"name":"OpenWeatherMap","description":null,"id":1,"create_time":"2017-10-25T23:30:37.000-0200"},"id":142,"create_time":"2017-10-25T23:30:38.000-0200"},{"name":"humidity sensor - Lhasa","description":null,"latitude":29.65,"longitude":91.099998,"sensorSource":{"name":"OpenWeatherMap","description":null,"id":1,"create_time":"2017-10-25T23:30:37.000-0200"},"id":143,"create_time":"2017-10-25T23:30:38.000-0200"},{"name":"speed_wind sensor - Lhasa","description":null,"latitude":29.65,"longitude":91.099998,"sensorSource":{"name":"OpenWeatherMap","description":null,"id":1,"create_time":"2017-10-25T23:30:37.000-0200"},"id":144,"create_time":"2017-10-25T23:30:38.000-0200"},{"name":"temperature sensor - ?stanbul","description":null,"latitude":41.03508,"longitude":28.983311,"sensorSource":{"name":"OpenWeatherMap","description":null,"id":1,"create_time":"2017-10-25T23:30:37.000-0200"},"id":145,"create_time":"2017-10-25T23:30:38.000-0200"},{"name":"pressure sensor - ?stanbul","description":null,"latitude":41.03508,"longitude":28.983311,"sensorSource":{"name":"OpenWeatherMap","description":null,"id":1,"create_time":"2017-10-25T23:30:37.000-0200"},"id":146,"create_time":"2017-10-25T23:30:38.000-0200"},{"name":"humidity sensor - ?stanbul","description":null,"latitude":41.03508,"longitude":28.983311,"sensorSource":{"name":"OpenWeatherMap","description":null,"id":1,"create_time":"2017-10-25T23:30:37.000-0200"},"id":147,"create_time":"2017-10-25T23:30:38.000-0200"},{"name":"speed_wind sensor - ?stanbul","description":null,"latitude":41.03508,"longitude":28.983311,"sensorSource":{"name":"OpenWeatherMap","description":null,"id":1,"create_time":"2017-10-25T23:30:37.000-0200"},"id":148,"create_time":"2017-10-25T23:30:38.000-0200"},{"name":"temperature sensor - Mao","description":null,"latitude":19.551861,"longitude":-71.078133,"sensorSource":{"name":"OpenWeatherMap","description":null,"id":1,"create_time":"2017-10-25T23:30:37.000-0200"},"id":149,"create_time":"2017-10-25T23:30:38.000-0200"},{"name":"pressure sensor - Mao","description":null,"latitude":19.551861,"longitude":-71.078133,"sensorSource":{"name":"OpenWeatherMap","description":null,"id":1,"create_time":"2017-10-25T23:30:37.000-0200"},"id":150,"create_time":"2017-10-25T23:30:38.000-0200"},{"name":"humidity sensor - Mao","description":null,"latitude":19.551861,"longitude":-71.078133,"sensorSource":{"name":"OpenWeatherMap","description":null,"id":1,"create_time":"2017-10-25T23:30:37.000-0200"},"id":151,"create_time":"2017-10-25T23:30:38.000-0200"},{"name":"speed_wind sensor - Mao","description":null,"latitude":19.551861,"longitude":-71.078133,"sensorSource":{"name":"OpenWeatherMap","description":null,"id":1,"create_time":"2017-10-25T23:30:37.000-0200"},"id":152,"create_time":"2017-10-25T23:30:38.000-0200"},{"name":"temperature sensor - Russian Federation","description":null,"latitude":60.0,"longitude":100.0,"sensorSource":{"name":"OpenWeatherMap","description":null,"id":1,"create_time":"2017-10-25T23:30:37.000-0200"},"id":153,"create_time":"2017-10-25T23:30:38.000-0200"},{"name":"pressure sensor - Russian Federation","description":null,"latitude":60.0,"longitude":100.0,"sensorSource":{"name":"OpenWeatherMap","description":null,"id":1,"create_time":"2017-10-25T23:30:37.000-0200"},"id":154,"create_time":"2017-10-25T23:30:38.000-0200"},{"name":"humidity sensor - Russian Federation","description":null,"latitude":60.0,"longitude":100.0,"sensorSource":{"name":"OpenWeatherMap","description":null,"id":1,"create_time":"2017-10-25T23:30:37.000-0200"},"id":155,"create_time":"2017-10-25T23:30:38.000-0200"},{"name":"speed_wind sensor - Russian Federation","description":null,"latitude":60.0,"longitude":100.0,"sensorSource":{"name":"OpenWeatherMap","description":null,"id":1,"create_time":"2017-10-25T23:30:37.000-0200"},"id":156,"create_time":"2017-10-25T23:30:38.000-0200"},{"name":"temperature sensor - De-Friz","description":null,"latitude":43.27861,"longitude":131.991394,"sensorSource":{"name":"OpenWeatherMap","description":null,"id":1,"create_time":"2017-10-25T23:30:37.000-0200"},"id":157,"create_time":"2017-10-25T23:30:39.000-0200"},{"name":"pressure sensor - De-Friz","description":null,"latitude":43.27861,"longitude":131.991394,"sensorSource":{"name":"OpenWeatherMap","description":null,"id":1,"create_time":"2017-10-25T23:30:37.000-0200"},"id":158,"create_time":"2017-10-25T23:30:39.000-0200"},{"name":"humidity sensor - De-Friz","description":null,"latitude":43.27861,"longitude":131.991394,"sensorSource":{"name":"OpenWeatherMap","description":null,"id":1,"create_time":"2017-10-25T23:30:37.000-0200"},"id":159,"create_time":"2017-10-25T23:30:39.000-0200"},{"name":"speed_wind sensor - De-Friz","description":null,"latitude":43.27861,"longitude":131.991394,"sensorSource":{"name":"OpenWeatherMap","description":null,"id":1,"create_time":"2017-10-25T23:30:37.000-0200"},"id":160,"create_time":"2017-10-25T23:30:39.000-0200"},{"name":"temperature sensor - Rumbak","description":null,"latitude":34.049999,"longitude":77.416664,"sensorSource":{"name":"OpenWeatherMap","description":null,"id":1,"create_time":"2017-10-25T23:30:37.000-0200"},"id":161,"create_time":"2017-10-25T23:30:39.000-0200"},{"name":"pressure sensor - Rumbak","description":null,"latitude":34.049999,"longitude":77.416664,"sensorSource":{"name":"OpenWeatherMap","description":null,"id":1,"create_time":"2017-10-25T23:30:37.000-0200"},"id":162,"create_time":"2017-10-25T23:30:39.000-0200"},{"name":"humidity sensor - Rumbak","description":null,"latitude":34.049999,"longitude":77.416664,"sensorSource":{"name":"OpenWeatherMap","description":null,"id":1,"create_time":"2017-10-25T23:30:37.000-0200"},"id":163,"create_time":"2017-10-25T23:30:39.000-0200"},{"name":"speed_wind sensor - Rumbak","description":null,"latitude":34.049999,"longitude":77.416664,"sensorSource":{"name":"OpenWeatherMap","description":null,"id":1,"create_time":"2017-10-25T23:30:37.000-0200"},"id":164,"create_time":"2017-10-25T23:30:39.000-0200"},{"name":"temperature sensor - Vavibet","description":null,"latitude":67.933334,"longitude":34.916668,"sensorSource":{"name":"OpenWeatherMap","description":null,"id":1,"create_time":"2017-10-25T23:30:37.000-0200"},"id":165,"create_time":"2017-10-25T23:30:39.000-0200"},{"name":"pressure sensor - Vavibet","description":null,"latitude":67.933334,"longitude":34.916668,"sensorSource":{"name":"OpenWeatherMap","description":null,"id":1,"create_time":"2017-10-25T23:30:37.000-0200"},"id":166,"create_time":"2017-10-25T23:30:39.000-0200"},{"name":"humidity sensor - Vavibet","description":null,"latitude":67.933334,"longitude":34.916668,"sensorSource":{"name":"OpenWeatherMap","description":null,"id":1,"create_time":"2017-10-25T23:30:37.000-0200"},"id":167,"create_time":"2017-10-25T23:30:39.000-0200"},{"name":"speed_wind sensor - Vavibet","description":null,"latitude":67.933334,"longitude":34.916668,"sensorSource":{"name":"OpenWeatherMap","description":null,"id":1,"create_time":"2017-10-25T23:30:37.000-0200"},"id":168,"create_time":"2017-10-25T23:30:39.000-0200"},{"name":"temperature sensor - Surtag?n Chib","description":null,"latitude":26.474443,"longitude":64.656113,"sensorSource":{"name":"OpenWeatherMap","description":null,"id":1,"create_time":"2017-10-25T23:30:37.000-0200"},"id":169,"create_time":"2017-10-25T23:30:39.000-0200"},{"name":"pressure sensor - Surtag?n Chib","description":null,"latitude":26.474443,"longitude":64.656113,"sensorSource":{"name":"OpenWeatherMap","description":null,"id":1,"create_time":"2017-10-25T23:30:37.000-0200"},"id":170,"create_time":"2017-10-25T23:30:39.000-0200"},{"name":"humidity sensor - Surtag?n Chib","description":null,"latitude":26.474443,"longitude":64.656113,"sensorSource":{"name":"OpenWeatherMap","description":null,"id":1,"create_time":"2017-10-25T23:30:37.000-0200"},"id":171,"create_time":"2017-10-25T23:30:39.000-0200"},{"name":"speed_wind sensor - Surtag?n Chib","description":null,"latitude":26.474443,"longitude":64.656113,"sensorSource":{"name":"OpenWeatherMap","description":null,"id":1,"create_time":"2017-10-25T23:30:37.000-0200"},"id":172,"create_time":"2017-10-25T23:30:39.000-0200"},{"name":"temperature sensor - R?gas Rajons","description":null,"latitude":57.0,"longitude":24.333332,"sensorSource":{"name":"OpenWeatherMap","description":null,"id":1,"create_time":"2017-10-25T23:30:37.000-0200"},"id":173,"create_time":"2017-10-25T23:30:39.000-0200"},{"name":"pressure sensor - R?gas Rajons","description":null,"latitude":57.0,"longitude":24.333332,"sensorSource":{"name":"OpenWeatherMap","description":null,"id":1,"create_time":"2017-10-25T23:30:37.000-0200"},"id":174,"create_time":"2017-10-25T23:30:39.000-0200"},{"name":"humidity sensor - R?gas Rajons","description":null,"latitude":57.0,"longitude":24.333332,"sensorSource":{"name":"OpenWeatherMap","description":null,"id":1,"create_time":"2017-10-25T23:30:37.000-0200"},"id":175,"create_time":"2017-10-25T23:30:39.000-0200"},{"name":"speed_wind sensor - R?gas Rajons","description":null,"latitude":57.0,"longitude":24.333332,"sensorSource":{"name":"OpenWeatherMap","description":null,"id":1,"create_time":"2017-10-25T23:30:37.000-0200"},"id":176,"create_time":"2017-10-25T23:30:39.000-0200"},{"name":"temperature sensor - Verkhneye Shchekotikhino","description":null,"latitude":53.0,"longitude":36.133331,"sensorSource":{"name":"OpenWeatherMap","description":null,"id":1,"create_time":"2017-10-25T23:30:37.000-0200"},"id":177,"create_time":"2017-10-25T23:30:39.000-0200"},{"name":"pressure sensor - Verkhneye Shchekotikhino","description":null,"latitude":53.0,"longitude":36.133331,"sensorSource":{"name":"OpenWeatherMap","description":null,"id":1,"create_time":"2017-10-25T23:30:37.000-0200"},"id":178,"create_time":"2017-10-25T23:30:39.000-0200"},{"name":"humidity sensor - Verkhneye Shchekotikhino","description":null,"latitude":53.0,"longitude":36.133331,"sensorSource":{"name":"OpenWeatherMap","description":null,"id":1,"create_time":"2017-10-25T23:30:37.000-0200"},"id":179,"create_time":"2017-10-25T23:30:39.000-0200"},{"name":"speed_wind sensor - Verkhneye Shchekotikhino","description":null,"latitude":53.0,"longitude":36.133331,"sensorSource":{"name":"OpenWeatherMap","description":null,"id":1,"create_time":"2017-10-25T23:30:37.000-0200"},"id":180,"create_time":"2017-10-25T23:30:39.000-0200"},{"name":"temperature sensor - Bucha","description":null,"latitude":50.583328,"longitude":30.366671,"sensorSource":{"name":"OpenWeatherMap","description":null,"id":1,"create_time":"2017-10-25T23:30:37.000-0200"},"id":181,"create_time":"2017-10-25T23:30:39.000-0200"},{"name":"pressure sensor - Bucha","description":null,"latitude":50.583328,"longitude":30.366671,"sensorSource":{"name":"OpenWeatherMap","description":null,"id":1,"create_time":"2017-10-25T23:30:37.000-0200"},"id":182,"create_time":"2017-10-25T23:30:39.000-0200"},{"name":"humidity sensor - Bucha","description":null,"latitude":50.583328,"longitude":30.366671,"sensorSource":{"name":"OpenWeatherMap","description":null,"id":1,"create_time":"2017-10-25T23:30:37.000-0200"},"id":183,"create_time":"2017-10-25T23:30:39.000-0200"},{"name":"speed_wind sensor - Bucha","description":null,"latitude":50.583328,"longitude":30.366671,"sensorSource":{"name":"OpenWeatherMap","description":null,"id":1,"create_time":"2017-10-25T23:30:37.000-0200"},"id":184,"create_time":"2017-10-25T23:30:39.000-0200"},{"name":"temperature sensor - Republic of Poland","description":null,"latitude":52.0,"longitude":20.0,"sensorSource":{"name":"OpenWeatherMap","description":null,"id":1,"create_time":"2017-10-25T23:30:37.000-0200"},"id":185,"create_time":"2017-10-25T23:30:39.000-0200"},{"name":"pressure sensor - Republic of Poland","description":null,"latitude":52.0,"longitude":20.0,"sensorSource":{"name":"OpenWeatherMap","description":null,"id":1,"create_time":"2017-10-25T23:30:37.000-0200"},"id":186,"create_time":"2017-10-25T23:30:39.000-0200"},{"name":"humidity sensor - Republic of Poland","description":null,"latitude":52.0,"longitude":20.0,"sensorSource":{"name":"OpenWeatherMap","description":null,"id":1,"create_time":"2017-10-25T23:30:37.000-0200"},"id":187,"create_time":"2017-10-25T23:30:39.000-0200"},{"name":"speed_wind sensor - Republic of Poland","description":null,"latitude":52.0,"longitude":20.0,"sensorSource":{"name":"OpenWeatherMap","description":null,"id":1,"create_time":"2017-10-25T23:30:37.000-0200"},"id":188,"create_time":"2017-10-25T23:30:39.000-0200"},{"name":"temperature sensor - Kuchary","description":null,"latitude":52.150002,"longitude":19.383329,"sensorSource":{"name":"OpenWeatherMap","description":null,"id":1,"create_time":"2017-10-25T23:30:37.000-0200"},"id":189,"create_time":"2017-10-25T23:30:39.000-0200"},{"name":"pressure sensor - Kuchary","description":null,"latitude":52.150002,"longitude":19.383329,"sensorSource":{"name":"OpenWeatherMap","description":null,"id":1,"create_time":"2017-10-25T23:30:37.000-0200"},"id":190,"create_time":"2017-10-25T23:30:39.000-0200"},{"name":"humidity sensor - Kuchary","description":null,"latitude":52.150002,"longitude":19.383329,"sensorSource":{"name":"OpenWeatherMap","description":null,"id":1,"create_time":"2017-10-25T23:30:37.000-0200"},"id":191,"create_time":"2017-10-25T23:30:39.000-0200"},{"name":"speed_wind sensor - Kuchary","description":null,"latitude":52.150002,"longitude":19.383329,"sensorSource":{"name":"OpenWeatherMap","description":null,"id":1,"create_time":"2017-10-25T23:30:37.000-0200"},"id":192,"create_time":"2017-10-25T23:30:39.000-0200"},{"name":"temperature sensor - North America","description":null,"latitude":46.073231,"longitude":-100.546883,"sensorSource":{"name":"OpenWeatherMap","description":null,"id":1,"create_time":"2017-10-25T23:30:37.000-0200"},"id":193,"create_time":"2017-10-25T23:30:39.000-0200"},{"name":"pressure sensor - North America","description":null,"latitude":46.073231,"longitude":-100.546883,"sensorSource":{"name":"OpenWeatherMap","description":null,"id":1,"create_time":"2017-10-25T23:30:37.000-0200"},"id":194,"create_time":"2017-10-25T23:30:39.000-0200"},{"name":"humidity sensor - North America","description":null,"latitude":46.073231,"longitude":-100.546883,"sensorSource":{"name":"OpenWeatherMap","description":null,"id":1,"create_time":"2017-10-25T23:30:37.000-0200"},"id":195,"create_time":"2017-10-25T23:30:39.000-0200"},{"name":"speed_wind sensor - North America","description":null,"latitude":46.073231,"longitude":-100.546883,"sensorSource":{"name":"OpenWeatherMap","description":null,"id":1,"create_time":"2017-10-25T23:30:37.000-0200"},"id":196,"create_time":"2017-10-25T23:30:39.000-0200"},{"name":"temperature sensor - Brumaire","description":null,"latitude":17.299999,"longitude":-62.73333,"sensorSource":{"name":"OpenWeatherMap","description":null,"id":1,"create_time":"2017-10-25T23:30:37.000-0200"},"id":197,"create_time":"2017-10-25T23:30:39.000-0200"},{"name":"pressure sensor - Brumaire","description":null,"latitude":17.299999,"longitude":-62.73333,"sensorSource":{"name":"OpenWeatherMap","description":null,"id":1,"create_time":"2017-10-25T23:30:37.000-0200"},"id":198,"create_time":"2017-10-25T23:30:39.000-0200"},{"name":"humidity sensor - Brumaire","description":null,"latitude":17.299999,"longitude":-62.73333,"sensorSource":{"name":"OpenWeatherMap","description":null,"id":1,"create_time":"2017-10-25T23:30:37.000-0200"},"id":199,"create_time":"2017-10-25T23:30:39.000-0200"},{"name":"speed_wind sensor - Brumaire","description":null,"latitude":17.299999,"longitude":-62.73333,"sensorSource":{"name":"OpenWeatherMap","description":null,"id":1,"create_time":"2017-10-25T23:30:37.000-0200"},"id":200,"create_time":"2017-10-25T23:30:39.000-0200"},{"name":"temperature sensor - Ishikawa-ken","description":null,"latitude":36.77145,"longitude":136.770493,"sensorSource":{"name":"OpenWeatherMap","description":null,"id":1,"create_time":"2017-10-25T23:30:37.000-0200"},"id":201,"create_time":"2017-10-25T23:30:39.000-0200"},{"name":"pressure sensor - Ishikawa-ken","description":null,"latitude":36.77145,"longitude":136.770493,"sensorSource":{"name":"OpenWeatherMap","description":null,"id":1,"create_time":"2017-10-25T23:30:37.000-0200"},"id":202,"create_time":"2017-10-25T23:30:39.000-0200"},{"name":"humidity sensor - Ishikawa-ken","description":null,"latitude":36.77145,"longitude":136.770493,"sensorSource":{"name":"OpenWeatherMap","description":null,"id":1,"create_time":"2017-10-25T23:30:37.000-0200"},"id":203,"create_time":"2017-10-25T23:30:39.000-0200"},{"name":"speed_wind sensor - Ishikawa-ken","description":null,"latitude":36.77145,"longitude":136.770493,"sensorSource":{"name":"OpenWeatherMap","description":null,"id":1,"create_time":"2017-10-25T23:30:37.000-0200"},"id":204,"create_time":"2017-10-25T23:30:39.000-0200"},{"name":"temperature sensor - Matoba","description":null,"latitude":34.25,"longitude":133.949997,"sensorSource":{"name":"OpenWeatherMap","description":null,"id":1,"create_time":"2017-10-25T23:30:37.000-0200"},"id":205,"create_time":"2017-10-25T23:30:39.000-0200"},{"name":"pressure sensor - Matoba","description":null,"latitude":34.25,"longitude":133.949997,"sensorSource":{"name":"OpenWeatherMap","description":null,"id":1,"create_time":"2017-10-25T23:30:37.000-0200"},"id":206,"create_time":"2017-10-25T23:30:39.000-0200"},{"name":"humidity sensor - Matoba","description":null,"latitude":34.25,"longitude":133.949997,"sensorSource":{"name":"OpenWeatherMap","description":null,"id":1,"create_time":"2017-10-25T23:30:37.000-0200"},"id":207,"create_time":"2017-10-25T23:30:39.000-0200"},{"name":"speed_wind sensor - Matoba","description":null,"latitude":34.25,"longitude":133.949997,"sensorSource":{"name":"OpenWeatherMap","description":null,"id":1,"create_time":"2017-10-25T23:30:37.000-0200"},"id":208,"create_time":"2017-10-25T23:30:39.000-0200"},{"name":"temperature sensor - Pya","description":null,"latitude":21.51667,"longitude":95.599998,"sensorSource":{"name":"OpenWeatherMap","description":null,"id":1,"create_time":"2017-10-25T23:30:37.000-0200"},"id":209,"create_time":"2017-10-25T23:30:39.000-0200"},{"name":"pressure sensor - Pya","description":null,"latitude":21.51667,"longitude":95.599998,"sensorSource":{"name":"OpenWeatherMap","description":null,"id":1,"create_time":"2017-10-25T23:30:37.000-0200"},"id":210,"create_time":"2017-10-25T23:30:39.000-0200"},{"name":"humidity sensor - Pya","description":null,"latitude":21.51667,"longitude":95.599998,"sensorSource":{"name":"OpenWeatherMap","description":null,"id":1,"create_time":"2017-10-25T23:30:37.000-0200"},"id":211,"create_time":"2017-10-25T23:30:39.000-0200"},{"name":"speed_wind sensor - Pya","description":null,"latitude":21.51667,"longitude":95.599998,"sensorSource":{"name":"OpenWeatherMap","description":null,"id":1,"create_time":"2017-10-25T23:30:37.000-0200"},"id":212,"create_time":"2017-10-25T23:30:39.000-0200"},{"name":"temperature sensor - Kalanac","description":null,"latitude":44.86861,"longitude":18.78389,"sensorSource":{"name":"OpenWeatherMap","description":null,"id":1,"create_time":"2017-10-25T23:30:37.000-0200"},"id":213,"create_time":"2017-10-25T23:30:39.000-0200"},{"name":"pressure sensor - Kalanac","description":null,"latitude":44.86861,"longitude":18.78389,"sensorSource":{"name":"OpenWeatherMap","description":null,"id":1,"create_time":"2017-10-25T23:30:37.000-0200"},"id":214,"create_time":"2017-10-25T23:30:39.000-0200"},{"name":"humidity sensor - Kalanac","description":null,"latitude":44.86861,"longitude":18.78389,"sensorSource":{"name":"OpenWeatherMap","description":null,"id":1,"create_time":"2017-10-25T23:30:37.000-0200"},"id":215,"create_time":"2017-10-25T23:30:39.000-0200"},{"name":"speed_wind sensor - Kalanac","description":null,"latitude":44.86861,"longitude":18.78389,"sensorSource":{"name":"OpenWeatherMap","description":null,"id":1,"create_time":"2017-10-25T23:30:37.000-0200"},"id":216,"create_time":"2017-10-25T23:30:39.000-0200"},{"name":"temperature sensor - Federal Republic of Germany","description":null,"latitude":51.5,"longitude":10.5,"sensorSource":{"name":"OpenWeatherMap","description":null,"id":1,"create_time":"2017-10-25T23:30:37.000-0200"},"id":217,"create_time":"2017-10-25T23:30:39.000-0200"},{"name":"pressure sensor - Federal Republic of Germany","description":null,"latitude":51.5,"longitude":10.5,"sensorSource":{"name":"OpenWeatherMap","description":null,"id":1,"create_time":"2017-10-25T23:30:37.000-0200"},"id":218,"create_time":"2017-10-25T23:30:39.000-0200"},{"name":"humidity sensor - Federal Republic of Germany","description":null,"latitude":51.5,"longitude":10.5,"sensorSource":{"name":"OpenWeatherMap","description":null,"id":1,"create_time":"2017-10-25T23:30:37.000-0200"},"id":219,"create_time":"2017-10-25T23:30:39.000-0200"},{"name":"speed_wind sensor - Federal Republic of Germany","description":null,"latitude":51.5,"longitude":10.5,"sensorSource":{"name":"OpenWeatherMap","description":null,"id":1,"create_time":"2017-10-25T23:30:37.000-0200"},"id":220,"create_time":"2017-10-25T23:30:39.000-0200"},{"name":"temperature sensor - Land Nordrhein-Westfalen","description":null,"latitude":51.5,"longitude":7.0,"sensorSource":{"name":"OpenWeatherMap","description":null,"id":1,"create_time":"2017-10-25T23:30:37.000-0200"},"id":221,"create_time":"2017-10-25T23:30:39.000-0200"},{"name":"pressure sensor - Land Nordrhein-Westfalen","description":null,"latitude":51.5,"longitude":7.0,"sensorSource":{"name":"OpenWeatherMap","description":null,"id":1,"create_time":"2017-10-25T23:30:37.000-0200"},"id":222,"create_time":"2017-10-25T23:30:39.000-0200"},{"name":"humidity sensor - Land Nordrhein-Westfalen","description":null,"latitude":51.5,"longitude":7.0,"sensorSource":{"name":"OpenWeatherMap","description":null,"id":1,"create_time":"2017-10-25T23:30:37.000-0200"},"id":223,"create_time":"2017-10-25T23:30:39.000-0200"},{"name":"speed_wind sensor - Land Nordrhein-Westfalen","description":null,"latitude":51.5,"longitude":7.0,"sensorSource":{"name":"OpenWeatherMap","description":null,"id":1,"create_time":"2017-10-25T23:30:37.000-0200"},"id":224,"create_time":"2017-10-25T23:30:39.000-0200"},{"name":"temperature sensor - Mutaykutan","description":null,"latitude":42.818859,"longitude":47.660641,"sensorSource":{"name":"OpenWeatherMap","description":null,"id":1,"create_time":"2017-10-25T23:30:37.000-0200"},"id":225,"create_time":"2017-10-25T23:30:39.000-0200"},{"name":"pressure sensor - Mutaykutan","description":null,"latitude":42.818859,"longitude":47.660641,"sensorSource":{"name":"OpenWeatherMap","description":null,"id":1,"create_time":"2017-10-25T23:30:37.000-0200"},"id":226,"create_time":"2017-10-25T23:30:39.000-0200"},{"name":"humidity sensor - Mutaykutan","description":null,"latitude":42.818859,"longitude":47.660641,"sensorSource":{"name":"OpenWeatherMap","description":null,"id":1,"create_time":"2017-10-25T23:30:37.000-0200"},"id":227,"create_time":"2017-10-25T23:30:39.000-0200"},{"name":"speed_wind sensor - Mutaykutan","description":null,"latitude":42.818859,"longitude":47.660641,"sensorSource":{"name":"OpenWeatherMap","description":null,"id":1,"create_time":"2017-10-25T23:30:37.000-0200"},"id":228,"create_time":"2017-10-25T23:30:39.000-0200"},{"name":"temperature sensor - Nalchik","description":null,"latitude":43.498058,"longitude":43.618889,"sensorSource":{"name":"OpenWeatherMap","description":null,"id":1,"create_time":"2017-10-25T23:30:37.000-0200"},"id":229,"create_time":"2017-10-25T23:30:39.000-0200"},{"name":"pressure sensor - Nalchik","description":null,"latitude":43.498058,"longitude":43.618889,"sensorSource":{"name":"OpenWeatherMap","description":null,"id":1,"create_time":"2017-10-25T23:30:37.000-0200"},"id":230,"create_time":"2017-10-25T23:30:39.000-0200"},{"name":"humidity sensor - Nalchik","description":null,"latitude":43.498058,"longitude":43.618889,"sensorSource":{"name":"OpenWeatherMap","description":null,"id":1,"create_time":"2017-10-25T23:30:37.000-0200"},"id":231,"create_time":"2017-10-25T23:30:39.000-0200"},{"name":"speed_wind sensor - Nalchik","description":null,"latitude":43.498058,"longitude":43.618889,"sensorSource":{"name":"OpenWeatherMap","description":null,"id":1,"create_time":"2017-10-25T23:30:37.000-0200"},"id":232,"create_time":"2017-10-25T23:30:39.000-0200"},{"name":"temperature sensor - Kolganov","description":null,"latitude":44.366669,"longitude":40.066669,"sensorSource":{"name":"OpenWeatherMap","description":null,"id":1,"create_time":"2017-10-25T23:30:37.000-0200"},"id":233,"create_time":"2017-10-25T23:30:39.000-0200"},{"name":"pressure sensor - Kolganov","description":null,"latitude":44.366669,"longitude":40.066669,"sensorSource":{"name":"OpenWeatherMap","description":null,"id":1,"create_time":"2017-10-25T23:30:37.000-0200"},"id":234,"create_time":"2017-10-25T23:30:39.000-0200"},{"name":"humidity sensor - Kolganov","description":null,"latitude":44.366669,"longitude":40.066669,"sensorSource":{"name":"OpenWeatherMap","description":null,"id":1,"create_time":"2017-10-25T23:30:37.000-0200"},"id":235,"create_time":"2017-10-25T23:30:39.000-0200"},{"name":"speed_wind sensor - Kolganov","description":null,"latitude":44.366669,"longitude":40.066669,"sensorSource":{"name":"OpenWeatherMap","description":null,"id":1,"create_time":"2017-10-25T23:30:37.000-0200"},"id":236,"create_time":"2017-10-25T23:30:39.000-0200"},{"name":"temperature sensor - Rybatskiy","description":null,"latitude":44.799171,"longitude":44.166389,"sensorSource":{"name":"OpenWeatherMap","description":null,"id":1,"create_time":"2017-10-25T23:30:37.000-0200"},"id":237,"create_time":"2017-10-25T23:30:39.000-0200"},{"name":"pressure sensor - Rybatskiy","description":null,"latitude":44.799171,"longitude":44.166389,"sensorSource":{"name":"OpenWeatherMap","description":null,"id":1,"create_time":"2017-10-25T23:30:37.000-0200"},"id":238,"create_time":"2017-10-25T23:30:39.000-0200"},{"name":"humidity sensor - Rybatskiy","description":null,"latitude":44.799171,"longitude":44.166389,"sensorSource":{"name":"OpenWeatherMap","description":null,"id":1,"create_time":"2017-10-25T23:30:37.000-0200"},"id":239,"create_time":"2017-10-25T23:30:39.000-0200"},{"name":"speed_wind sensor - Rybatskiy","description":null,"latitude":44.799171,"longitude":44.166389,"sensorSource":{"name":"OpenWeatherMap","description":null,"id":1,"create_time":"2017-10-25T23:30:37.000-0200"},"id":240,"create_time":"2017-10-25T23:30:39.000-0200"},{"name":"temperature sensor - Bellara","description":null,"latitude":-27.063919,"longitude":153.149597,"sensorSource":{"name":"OpenWeatherMap","description":null,"id":1,"create_time":"2017-10-25T23:30:37.000-0200"},"id":241,"create_time":"2017-10-25T23:30:39.000-0200"},{"name":"pressure sensor - Bellara","description":null,"latitude":-27.063919,"longitude":153.149597,"sensorSource":{"name":"OpenWeatherMap","description":null,"id":1,"create_time":"2017-10-25T23:30:37.000-0200"},"id":242,"create_time":"2017-10-25T23:30:39.000-0200"},{"name":"humidity sensor - Bellara","description":null,"latitude":-27.063919,"longitude":153.149597,"sensorSource":{"name":"OpenWeatherMap","description":null,"id":1,"create_time":"2017-10-25T23:30:37.000-0200"},"id":243,"create_time":"2017-10-25T23:30:39.000-0200"},{"name":"speed_wind sensor - Bellara","description":null,"latitude":-27.063919,"longitude":153.149597,"sensorSource":{"name":"OpenWeatherMap","description":null,"id":1,"create_time":"2017-10-25T23:30:37.000-0200"},"id":244,"create_time":"2017-10-25T23:30:39.000-0200"},{"name":"temperature sensor - Bartlett","description":null,"latitude":-26.17061,"longitude":28.25263,"sensorSource":{"name":"OpenWeatherMap","description":null,"id":1,"create_time":"2017-10-25T23:30:37.000-0200"},"id":245,"create_time":"2017-10-25T23:30:39.000-0200"},{"name":"pressure sensor - Bartlett","description":null,"latitude":-26.17061,"longitude":28.25263,"sensorSource":{"name":"OpenWeatherMap","description":null,"id":1,"create_time":"2017-10-25T23:30:37.000-0200"},"id":246,"create_time":"2017-10-25T23:30:39.000-0200"},{"name":"humidity sensor - Bartlett","description":null,"latitude":-26.17061,"longitude":28.25263,"sensorSource":{"name":"OpenWeatherMap","description":null,"id":1,"create_time":"2017-10-25T23:30:37.000-0200"},"id":247,"create_time":"2017-10-25T23:30:39.000-0200"},{"name":"speed_wind sensor - Bartlett","description":null,"latitude":-26.17061,"longitude":28.25263,"sensorSource":{"name":"OpenWeatherMap","description":null,"id":1,"create_time":"2017-10-25T23:30:37.000-0200"},"id":248,"create_time":"2017-10-25T23:30:39.000-0200"},{"name":"temperature sensor - Rietfontein","description":null,"latitude":-25.5,"longitude":29.200001,"sensorSource":{"name":"OpenWeatherMap","description":null,"id":1,"create_time":"2017-10-25T23:30:37.000-0200"},"id":249,"create_time":"2017-10-25T23:30:39.000-0200"},{"name":"pressure sensor - Rietfontein","description":null,"latitude":-25.5,"longitude":29.200001,"sensorSource":{"name":"OpenWeatherMap","description":null,"id":1,"create_time":"2017-10-25T23:30:37.000-0200"},"id":250,"create_time":"2017-10-25T23:30:39.000-0200"},{"name":"humidity sensor - Rietfontein","description":null,"latitude":-25.5,"longitude":29.200001,"sensorSource":{"name":"OpenWeatherMap","description":null,"id":1,"create_time":"2017-10-25T23:30:37.000-0200"},"id":251,"create_time":"2017-10-25T23:30:39.000-0200"},{"name":"speed_wind sensor - Rietfontein","description":null,"latitude":-25.5,"longitude":29.200001,"sensorSource":{"name":"OpenWeatherMap","description":null,"id":1,"create_time":"2017-10-25T23:30:37.000-0200"},"id":252,"create_time":"2017-10-25T23:30:39.000-0200"},{"name":"temperature sensor - Hardap","description":null,"latitude":-24.5,"longitude":17.25,"sensorSource":{"name":"OpenWeatherMap","description":null,"id":1,"create_time":"2017-10-25T23:30:37.000-0200"},"id":253,"create_time":"2017-10-25T23:30:39.000-0200"},{"name":"pressure sensor - Hardap","description":null,"latitude":-24.5,"longitude":17.25,"sensorSource":{"name":"OpenWeatherMap","description":null,"id":1,"create_time":"2017-10-25T23:30:37.000-0200"},"id":254,"create_time":"2017-10-25T23:30:39.000-0200"},{"name":"humidity sensor - Hardap","description":null,"latitude":-24.5,"longitude":17.25,"sensorSource":{"name":"OpenWeatherMap","description":null,"id":1,"create_time":"2017-10-25T23:30:37.000-0200"},"id":255,"create_time":"2017-10-25T23:30:39.000-0200"},{"name":"speed_wind sensor - Hardap","description":null,"latitude":-24.5,"longitude":17.25,"sensorSource":{"name":"OpenWeatherMap","description":null,"id":1,"create_time":"2017-10-25T23:30:37.000-0200"},"id":256,"create_time":"2017-10-25T23:30:39.000-0200"},{"name":"temperature sensor - Botswana","description":null,"latitude":-24.33333,"longitude":30.533331,"sensorSource":{"name":"OpenWeatherMap","description":null,"id":1,"create_time":"2017-10-25T23:30:37.000-0200"},"id":257,"create_time":"2017-10-25T23:30:39.000-0200"},{"name":"pressure sensor - Botswana","description":null,"latitude":-24.33333,"longitude":30.533331,"sensorSource":{"name":"OpenWeatherMap","description":null,"id":1,"create_time":"2017-10-25T23:30:37.000-0200"},"id":258,"create_time":"2017-10-25T23:30:39.000-0200"},{"name":"humidity sensor - Botswana","description":null,"latitude":-24.33333,"longitude":30.533331,"sensorSource":{"name":"OpenWeatherMap","description":null,"id":1,"create_time":"2017-10-25T23:30:37.000-0200"},"id":259,"create_time":"2017-10-25T23:30:39.000-0200"},{"name":"speed_wind sensor - Botswana","description":null,"latitude":-24.33333,"longitude":30.533331,"sensorSource":{"name":"OpenWeatherMap","description":null,"id":1,"create_time":"2017-10-25T23:30:37.000-0200"},"id":260,"create_time":"2017-10-25T23:30:39.000-0200"},{"name":"temperature sensor - El Destierro","description":null,"latitude":-24.1,"longitude":-62.47662,"sensorSource":{"name":"OpenWeatherMap","description":null,"id":1,"create_time":"2017-10-25T23:30:37.000-0200"},"id":261,"create_time":"2017-10-25T23:30:39.000-0200"},{"name":"pressure sensor - El Destierro","description":null,"latitude":-24.1,"longitude":-62.47662,"sensorSource":{"name":"OpenWeatherMap","description":null,"id":1,"create_time":"2017-10-25T23:30:37.000-0200"},"id":262,"create_time":"2017-10-25T23:30:39.000-0200"},{"name":"humidity sensor - El Destierro","description":null,"latitude":-24.1,"longitude":-62.47662,"sensorSource":{"name":"OpenWeatherMap","description":null,"id":1,"create_time":"2017-10-25T23:30:37.000-0200"},"id":263,"create_time":"2017-10-25T23:30:39.000-0200"},{"name":"speed_wind sensor - El Destierro","description":null,"latitude":-24.1,"longitude":-62.47662,"sensorSource":{"name":"OpenWeatherMap","description":null,"id":1,"create_time":"2017-10-25T23:30:37.000-0200"},"id":264,"create_time":"2017-10-25T23:30:39.000-0200"},{"name":"temperature sensor - Jones Crossroads","description":null,"latitude":31.21073,"longitude":-85.484657,"sensorSource":{"name":"OpenWeatherMap","description":null,"id":1,"create_time":"2017-10-25T23:30:37.000-0200"},"id":265,"create_time":"2017-10-25T23:30:39.000-0200"},{"name":"pressure sensor - Jones Crossroads","description":null,"latitude":31.21073,"longitude":-85.484657,"sensorSource":{"name":"OpenWeatherMap","description":null,"id":1,"create_time":"2017-10-25T23:30:37.000-0200"},"id":266,"create_time":"2017-10-25T23:30:39.000-0200"},{"name":"humidity sensor - Jones Crossroads","description":null,"latitude":31.21073,"longitude":-85.484657,"sensorSource":{"name":"OpenWeatherMap","description":null,"id":1,"create_time":"2017-10-25T23:30:37.000-0200"},"id":267,"create_time":"2017-10-25T23:30:39.000-0200"},{"name":"speed_wind sensor - Jones Crossroads","description":null,"latitude":31.21073,"longitude":-85.484657,"sensorSource":{"name":"OpenWeatherMap","description":null,"id":1,"create_time":"2017-10-25T23:30:37.000-0200"},"id":268,"create_time":"2017-10-25T23:30:39.000-0200"},{"name":"temperature sensor - Vernon Parish","description":null,"latitude":31.11685,"longitude":-93.183502,"sensorSource":{"name":"OpenWeatherMap","description":null,"id":1,"create_time":"2017-10-25T23:30:37.000-0200"},"id":269,"create_time":"2017-10-25T23:30:39.000-0200"},{"name":"pressure sensor - Vernon Parish","description":null,"latitude":31.11685,"longitude":-93.183502,"sensorSource":{"name":"OpenWeatherMap","description":null,"id":1,"create_time":"2017-10-25T23:30:37.000-0200"},"id":270,"create_time":"2017-10-25T23:30:39.000-0200"},{"name":"humidity sensor - Vernon Parish","description":null,"latitude":31.11685,"longitude":-93.183502,"sensorSource":{"name":"OpenWeatherMap","description":null,"id":1,"create_time":"2017-10-25T23:30:37.000-0200"},"id":271,"create_time":"2017-10-25T23:30:39.000-0200"},{"name":"speed_wind sensor - Vernon Parish","description":null,"latitude":31.11685,"longitude":-93.183502,"sensorSource":{"name":"OpenWeatherMap","description":null,"id":1,"create_time":"2017-10-25T23:30:37.000-0200"},"id":272,"create_time":"2017-10-25T23:30:39.000-0200"},{"name":"temperature sensor - Pennick","description":null,"latitude":31.313,"longitude":-81.55899,"sensorSource":{"name":"OpenWeatherMap","description":null,"id":1,"create_time":"2017-10-25T23:30:37.000-0200"},"id":273,"create_time":"2017-10-25T23:30:39.000-0200"},{"name":"pressure sensor - Pennick","description":null,"latitude":31.313,"longitude":-81.55899,"sensorSource":{"name":"OpenWeatherMap","description":null,"id":1,"create_time":"2017-10-25T23:30:37.000-0200"},"id":274,"create_time":"2017-10-25T23:30:39.000-0200"},{"name":"humidity sensor - Pennick","description":null,"latitude":31.313,"longitude":-81.55899,"sensorSource":{"name":"OpenWeatherMap","description":null,"id":1,"create_time":"2017-10-25T23:30:37.000-0200"},"id":275,"create_time":"2017-10-25T23:30:39.000-0200"},{"name":"speed_wind sensor - Pennick","description":null,"latitude":31.313,"longitude":-81.55899,"sensorSource":{"name":"OpenWeatherMap","description":null,"id":1,"create_time":"2017-10-25T23:30:37.000-0200"},"id":276,"create_time":"2017-10-25T23:30:39.000-0200"},{"name":"temperature sensor - Black Bear Spring","description":null,"latitude":31.386209,"longitude":-110.288139,"sensorSource":{"name":"OpenWeatherMap","description":null,"id":1,"create_time":"2017-10-25T23:30:37.000-0200"},"id":277,"create_time":"2017-10-25T23:30:39.000-0200"},{"name":"pressure sensor - Black Bear Spring","description":null,"latitude":31.386209,"longitude":-110.288139,"sensorSource":{"name":"OpenWeatherMap","description":null,"id":1,"create_time":"2017-10-25T23:30:37.000-0200"},"id":278,"create_time":"2017-10-25T23:30:39.000-0200"},{"name":"humidity sensor - Black Bear Spring","description":null,"latitude":31.386209,"longitude":-110.288139,"sensorSource":{"name":"OpenWeatherMap","description":null,"id":1,"create_time":"2017-10-25T23:30:37.000-0200"},"id":279,"create_time":"2017-10-25T23:30:39.000-0200"},{"name":"speed_wind sensor - Black Bear Spring","description":null,"latitude":31.386209,"longitude":-110.288139,"sensorSource":{"name":"OpenWeatherMap","description":null,"id":1,"create_time":"2017-10-25T23:30:37.000-0200"},"id":280,"create_time":"2017-10-25T23:30:39.000-0200"},{"name":"temperature sensor - Bee House","description":null,"latitude":31.40266,"longitude":-98.081139,"sensorSource":{"name":"OpenWeatherMap","description":null,"id":1,"create_time":"2017-10-25T23:30:37.000-0200"},"id":281,"create_time":"2017-10-25T23:30:39.000-0200"},{"name":"pressure sensor - Bee House","description":null,"latitude":31.40266,"longitude":-98.081139,"sensorSource":{"name":"OpenWeatherMap","description":null,"id":1,"create_time":"2017-10-25T23:30:37.000-0200"},"id":282,"create_time":"2017-10-25T23:30:39.000-0200"},{"name":"humidity sensor - Bee House","description":null,"latitude":31.40266,"longitude":-98.081139,"sensorSource":{"name":"OpenWeatherMap","description":null,"id":1,"create_time":"2017-10-25T23:30:37.000-0200"},"id":283,"create_time":"2017-10-25T23:30:39.000-0200"},{"name":"speed_wind sensor - Bee House","description":null,"latitude":31.40266,"longitude":-98.081139,"sensorSource":{"name":"OpenWeatherMap","description":null,"id":1,"create_time":"2017-10-25T23:30:37.000-0200"},"id":284,"create_time":"2017-10-25T23:30:39.000-0200"},{"name":"temperature sensor - Morden","description":null,"latitude":49.191898,"longitude":-98.101357,"sensorSource":{"name":"OpenWeatherMap","description":null,"id":1,"create_time":"2017-10-25T23:30:37.000-0200"},"id":285,"create_time":"2017-10-25T23:30:39.000-0200"},{"name":"pressure sensor - Morden","description":null,"latitude":49.191898,"longitude":-98.101357,"sensorSource":{"name":"OpenWeatherMap","description":null,"id":1,"create_time":"2017-10-25T23:30:37.000-0200"},"id":286,"create_time":"2017-10-25T23:30:39.000-0200"},{"name":"humidity sensor - Morden","description":null,"latitude":49.191898,"longitude":-98.101357,"sensorSource":{"name":"OpenWeatherMap","description":null,"id":1,"create_time":"2017-10-25T23:30:37.000-0200"},"id":287,"create_time":"2017-10-25T23:30:39.000-0200"},{"name":"speed_wind sensor - Morden","description":null,"latitude":49.191898,"longitude":-98.101357,"sensorSource":{"name":"OpenWeatherMap","description":null,"id":1,"create_time":"2017-10-25T23:30:37.000-0200"},"id":288,"create_time":"2017-10-25T23:30:39.000-0200"},{"name":"temperature sensor - Nasirotu","description":null,"latitude":-18.033331,"longitude":178.25,"sensorSource":{"name":"OpenWeatherMap","description":null,"id":1,"create_time":"2017-10-25T23:30:37.000-0200"},"id":289,"create_time":"2017-10-25T23:30:39.000-0200"},{"name":"pressure sensor - Nasirotu","description":null,"latitude":-18.033331,"longitude":178.25,"sensorSource":{"name":"OpenWeatherMap","description":null,"id":1,"create_time":"2017-10-25T23:30:37.000-0200"},"id":290,"create_time":"2017-10-25T23:30:39.000-0200"},{"name":"humidity sensor - Nasirotu","description":null,"latitude":-18.033331,"longitude":178.25,"sensorSource":{"name":"OpenWeatherMap","description":null,"id":1,"create_time":"2017-10-25T23:30:37.000-0200"},"id":291,"create_time":"2017-10-25T23:30:39.000-0200"},{"name":"speed_wind sensor - Nasirotu","description":null,"latitude":-18.033331,"longitude":178.25,"sensorSource":{"name":"OpenWeatherMap","description":null,"id":1,"create_time":"2017-10-25T23:30:37.000-0200"},"id":292,"create_time":"2017-10-25T23:30:39.000-0200"},{"name":"temperature sensor - Sisali","description":null,"latitude":-9.19167,"longitude":124.531387,"sensorSource":{"name":"OpenWeatherMap","description":null,"id":1,"create_time":"2017-10-25T23:30:37.000-0200"},"id":293,"create_time":"2017-10-25T23:30:39.000-0200"},{"name":"pressure sensor - Sisali","description":null,"latitude":-9.19167,"longitude":124.531387,"sensorSource":{"name":"OpenWeatherMap","description":null,"id":1,"create_time":"2017-10-25T23:30:37.000-0200"},"id":294,"create_time":"2017-10-25T23:30:39.000-0200"},{"name":"humidity sensor - Sisali","description":null,"latitude":-9.19167,"longitude":124.531387,"sensorSource":{"name":"OpenWeatherMap","description":null,"id":1,"create_time":"2017-10-25T23:30:37.000-0200"},"id":295,"create_time":"2017-10-25T23:30:39.000-0200"},{"name":"speed_wind sensor - Sisali","description":null,"latitude":-9.19167,"longitude":124.531387,"sensorSource":{"name":"OpenWeatherMap","description":null,"id":1,"create_time":"2017-10-25T23:30:37.000-0200"},"id":296,"create_time":"2017-10-25T23:30:39.000-0200"},{"name":"temperature sensor - Puntan","description":null,"latitude":-7.51944,"longitude":110.553329,"sensorSource":{"name":"OpenWeatherMap","description":null,"id":1,"create_time":"2017-10-25T23:30:37.000-0200"},"id":297,"create_time":"2017-10-25T23:30:39.000-0200"},{"name":"pressure sensor - Puntan","description":null,"latitude":-7.51944,"longitude":110.553329,"sensorSource":{"name":"OpenWeatherMap","description":null,"id":1,"create_time":"2017-10-25T23:30:37.000-0200"},"id":298,"create_time":"2017-10-25T23:30:39.000-0200"},{"name":"humidity sensor - Puntan","description":null,"latitude":-7.51944,"longitude":110.553329,"sensorSource":{"name":"OpenWeatherMap","description":null,"id":1,"create_time":"2017-10-25T23:30:37.000-0200"},"id":299,"create_time":"2017-10-25T23:30:39.000-0200"},{"name":"speed_wind sensor - Puntan","description":null,"latitude":-7.51944,"longitude":110.553329,"sensorSource":{"name":"OpenWeatherMap","description":null,"id":1,"create_time":"2017-10-25T23:30:37.000-0200"},"id":300,"create_time":"2017-10-25T23:30:39.000-0200"},{"name":"temperature sensor - Tsiémé-Mandiélé","description":null,"latitude":-4.22694,"longitude":15.2875,"sensorSource":{"name":"OpenWeatherMap","description":null,"id":1,"create_time":"2017-10-25T23:30:37.000-0200"},"id":301,"create_time":"2017-10-25T23:30:39.000-0200"},{"name":"pressure sensor - Tsiémé-Mandiélé","description":null,"latitude":-4.22694,"longitude":15.2875,"sensorSource":{"name":"OpenWeatherMap","description":null,"id":1,"create_time":"2017-10-25T23:30:37.000-0200"},"id":302,"create_time":"2017-10-25T23:30:39.000-0200"},{"name":"humidity sensor - Tsiémé-Mandiélé","description":null,"latitude":-4.22694,"longitude":15.2875,"sensorSource":{"name":"OpenWeatherMap","description":null,"id":1,"create_time":"2017-10-25T23:30:37.000-0200"},"id":303,"create_time":"2017-10-25T23:30:39.000-0200"},{"name":"speed_wind sensor - Tsiémé-Mandiélé","description":null,"latitude":-4.22694,"longitude":15.2875,"sensorSource":{"name":"OpenWeatherMap","description":null,"id":1,"create_time":"2017-10-25T23:30:37.000-0200"},"id":304,"create_time":"2017-10-25T23:30:39.000-0200"},{"name":"temperature sensor - Masama","description":null,"latitude":-3.23333,"longitude":37.183331,"sensorSource":{"name":"OpenWeatherMap","description":null,"id":1,"create_time":"2017-10-25T23:30:37.000-0200"},"id":305,"create_time":"2017-10-25T23:30:39.000-0200"},{"name":"pressure sensor - Masama","description":null,"latitude":-3.23333,"longitude":37.183331,"sensorSource":{"name":"OpenWeatherMap","description":null,"id":1,"create_time":"2017-10-25T23:30:37.000-0200"},"id":306,"create_time":"2017-10-25T23:30:39.000-0200"},{"name":"humidity sensor - Masama","description":null,"latitude":-3.23333,"longitude":37.183331,"sensorSource":{"name":"OpenWeatherMap","description":null,"id":1,"create_time":"2017-10-25T23:30:37.000-0200"},"id":307,"create_time":"2017-10-25T23:30:39.000-0200"},{"name":"speed_wind sensor - Masama","description":null,"latitude":-3.23333,"longitude":37.183331,"sensorSource":{"name":"OpenWeatherMap","description":null,"id":1,"create_time":"2017-10-25T23:30:37.000-0200"},"id":308,"create_time":"2017-10-25T23:30:39.000-0200"},{"name":"temperature sensor - Purukcahu","description":null,"latitude":-0.58333,"longitude":114.583328,"sensorSource":{"name":"OpenWeatherMap","description":null,"id":1,"create_time":"2017-10-25T23:30:37.000-0200"},"id":309,"create_time":"2017-10-25T23:30:39.000-0200"},{"name":"pressure sensor - Purukcahu","description":null,"latitude":-0.58333,"longitude":114.583328,"sensorSource":{"name":"OpenWeatherMap","description":null,"id":1,"create_time":"2017-10-25T23:30:37.000-0200"},"id":310,"create_time":"2017-10-25T23:30:39.000-0200"},{"name":"humidity sensor - Purukcahu","description":null,"latitude":-0.58333,"longitude":114.583328,"sensorSource":{"name":"OpenWeatherMap","description":null,"id":1,"create_time":"2017-10-25T23:30:37.000-0200"},"id":311,"create_time":"2017-10-25T23:30:39.000-0200"},{"name":"speed_wind sensor - Purukcahu","description":null,"latitude":-0.58333,"longitude":114.583328,"sensorSource":{"name":"OpenWeatherMap","description":null,"id":1,"create_time":"2017-10-25T23:30:37.000-0200"},"id":312,"create_time":"2017-10-25T23:30:39.000-0200"},{"name":"temperature sensor - Néméyong II","description":null,"latitude":2.91667,"longitude":13.5,"sensorSource":{"name":"OpenWeatherMap","description":null,"id":1,"create_time":"2017-10-25T23:30:37.000-0200"},"id":313,"create_time":"2017-10-25T23:30:39.000-0200"},{"name":"pressure sensor - Néméyong II","description":null,"latitude":2.91667,"longitude":13.5,"sensorSource":{"name":"OpenWeatherMap","description":null,"id":1,"create_time":"2017-10-25T23:30:37.000-0200"},"id":314,"create_time":"2017-10-25T23:30:39.000-0200"},{"name":"humidity sensor - Néméyong II","description":null,"latitude":2.91667,"longitude":13.5,"sensorSource":{"name":"OpenWeatherMap","description":null,"id":1,"create_time":"2017-10-25T23:30:37.000-0200"},"id":315,"create_time":"2017-10-25T23:30:39.000-0200"},{"name":"speed_wind sensor - Néméyong II","description":null,"latitude":2.91667,"longitude":13.5,"sensorSource":{"name":"OpenWeatherMap","description":null,"id":1,"create_time":"2017-10-25T23:30:37.000-0200"},"id":316,"create_time":"2017-10-25T23:30:39.000-0200"},{"name":"temperature sensor - Pondok Genteng","description":null,"latitude":3.2245,"longitude":99.0709,"sensorSource":{"name":"OpenWeatherMap","description":null,"id":1,"create_time":"2017-10-25T23:30:37.000-0200"},"id":317,"create_time":"2017-10-25T23:30:39.000-0200"},{"name":"pressure sensor - Pondok Genteng","description":null,"latitude":3.2245,"longitude":99.0709,"sensorSource":{"name":"OpenWeatherMap","description":null,"id":1,"create_time":"2017-10-25T23:30:37.000-0200"},"id":318,"create_time":"2017-10-25T23:30:40.000-0200"},{"name":"humidity sensor - Pondok Genteng","description":null,"latitude":3.2245,"longitude":99.0709,"sensorSource":{"name":"OpenWeatherMap","description":null,"id":1,"create_time":"2017-10-25T23:30:37.000-0200"},"id":319,"create_time":"2017-10-25T23:30:40.000-0200"},{"name":"speed_wind sensor - Pondok Genteng","description":null,"latitude":3.2245,"longitude":99.0709,"sensorSource":{"name":"OpenWeatherMap","description":null,"id":1,"create_time":"2017-10-25T23:30:37.000-0200"},"id":320,"create_time":"2017-10-25T23:30:40.000-0200"},{"name":"temperature sensor - Mbongoté","description":null,"latitude":4.25,"longitude":18.283331,"sensorSource":{"name":"OpenWeatherMap","description":null,"id":1,"create_time":"2017-10-25T23:30:37.000-0200"},"id":321,"create_time":"2017-10-25T23:30:40.000-0200"},{"name":"pressure sensor - Mbongoté","description":null,"latitude":4.25,"longitude":18.283331,"sensorSource":{"name":"OpenWeatherMap","description":null,"id":1,"create_time":"2017-10-25T23:30:37.000-0200"},"id":322,"create_time":"2017-10-25T23:30:40.000-0200"},{"name":"humidity sensor - Mbongoté","description":null,"latitude":4.25,"longitude":18.283331,"sensorSource":{"name":"OpenWeatherMap","description":null,"id":1,"create_time":"2017-10-25T23:30:37.000-0200"},"id":323,"create_time":"2017-10-25T23:30:40.000-0200"},{"name":"speed_wind sensor - Mbongoté","description":null,"latitude":4.25,"longitude":18.283331,"sensorSource":{"name":"OpenWeatherMap","description":null,"id":1,"create_time":"2017-10-25T23:30:37.000-0200"},"id":324,"create_time":"2017-10-25T23:30:40.000-0200"},{"name":"temperature sensor - Amiling","description":null,"latitude":4.19417,"longitude":32.355831,"sensorSource":{"name":"OpenWeatherMap","description":null,"id":1,"create_time":"2017-10-25T23:30:37.000-0200"},"id":325,"create_time":"2017-10-25T23:30:40.000-0200"},{"name":"pressure sensor - Amiling","description":null,"latitude":4.19417,"longitude":32.355831,"sensorSource":{"name":"OpenWeatherMap","description":null,"id":1,"create_time":"2017-10-25T23:30:37.000-0200"},"id":326,"create_time":"2017-10-25T23:30:40.000-0200"},{"name":"humidity sensor - Amiling","description":null,"latitude":4.19417,"longitude":32.355831,"sensorSource":{"name":"OpenWeatherMap","description":null,"id":1,"create_time":"2017-10-25T23:30:37.000-0200"},"id":327,"create_time":"2017-10-25T23:30:40.000-0200"},{"name":"speed_wind sensor - Amiling","description":null,"latitude":4.19417,"longitude":32.355831,"sensorSource":{"name":"OpenWeatherMap","description":null,"id":1,"create_time":"2017-10-25T23:30:37.000-0200"},"id":328,"create_time":"2017-10-25T23:30:40.000-0200"},{"name":"temperature sensor - Kélkoto","description":null,"latitude":4.43333,"longitude":11.16667,"sensorSource":{"name":"OpenWeatherMap","description":null,"id":1,"create_time":"2017-10-25T23:30:37.000-0200"},"id":329,"create_time":"2017-10-25T23:30:40.000-0200"},{"name":"pressure sensor - Kélkoto","description":null,"latitude":4.43333,"longitude":11.16667,"sensorSource":{"name":"OpenWeatherMap","description":null,"id":1,"create_time":"2017-10-25T23:30:37.000-0200"},"id":330,"create_time":"2017-10-25T23:30:40.000-0200"},{"name":"humidity sensor - Kélkoto","description":null,"latitude":4.43333,"longitude":11.16667,"sensorSource":{"name":"OpenWeatherMap","description":null,"id":1,"create_time":"2017-10-25T23:30:37.000-0200"},"id":331,"create_time":"2017-10-25T23:30:40.000-0200"},{"name":"speed_wind sensor - Kélkoto","description":null,"latitude":4.43333,"longitude":11.16667,"sensorSource":{"name":"OpenWeatherMap","description":null,"id":1,"create_time":"2017-10-25T23:30:37.000-0200"},"id":332,"create_time":"2017-10-25T23:30:40.000-0200"},{"name":"temperature sensor - Angetu","description":null,"latitude":6.33333,"longitude":39.48333,"sensorSource":{"name":"OpenWeatherMap","description":null,"id":1,"create_time":"2017-10-25T23:30:37.000-0200"},"id":333,"create_time":"2017-10-25T23:30:40.000-0200"},{"name":"pressure sensor - Angetu","description":null,"latitude":6.33333,"longitude":39.48333,"sensorSource":{"name":"OpenWeatherMap","description":null,"id":1,"create_time":"2017-10-25T23:30:37.000-0200"},"id":334,"create_time":"2017-10-25T23:30:40.000-0200"},{"name":"humidity sensor - Angetu","description":null,"latitude":6.33333,"longitude":39.48333,"sensorSource":{"name":"OpenWeatherMap","description":null,"id":1,"create_time":"2017-10-25T23:30:37.000-0200"},"id":335,"create_time":"2017-10-25T23:30:40.000-0200"},{"name":"speed_wind sensor - Angetu","description":null,"latitude":6.33333,"longitude":39.48333,"sensorSource":{"name":"OpenWeatherMap","description":null,"id":1,"create_time":"2017-10-25T23:30:37.000-0200"},"id":336,"create_time":"2017-10-25T23:30:40.000-0200"},{"name":"temperature sensor - Massa","description":null,"latitude":10.98333,"longitude":29.466669,"sensorSource":{"name":"OpenWeatherMap","description":null,"id":1,"create_time":"2017-10-25T23:30:37.000-0200"},"id":337,"create_time":"2017-10-25T23:30:40.000-0200"},{"name":"pressure sensor - Massa","description":null,"latitude":10.98333,"longitude":29.466669,"sensorSource":{"name":"OpenWeatherMap","description":null,"id":1,"create_time":"2017-10-25T23:30:37.000-0200"},"id":338,"create_time":"2017-10-25T23:30:40.000-0200"},{"name":"humidity sensor - Massa","description":null,"latitude":10.98333,"longitude":29.466669,"sensorSource":{"name":"OpenWeatherMap","description":null,"id":1,"create_time":"2017-10-25T23:30:37.000-0200"},"id":339,"create_time":"2017-10-25T23:30:40.000-0200"},{"name":"speed_wind sensor - Massa","description":null,"latitude":10.98333,"longitude":29.466669,"sensorSource":{"name":"OpenWeatherMap","description":null,"id":1,"create_time":"2017-10-25T23:30:37.000-0200"},"id":340,"create_time":"2017-10-25T23:30:40.000-0200"},{"name":"temperature sensor - Tumko","description":null,"latitude":12.01667,"longitude":24.6,"sensorSource":{"name":"OpenWeatherMap","description":null,"id":1,"create_time":"2017-10-25T23:30:37.000-0200"},"id":341,"create_time":"2017-10-25T23:30:40.000-0200"},{"name":"pressure sensor - Tumko","description":null,"latitude":12.01667,"longitude":24.6,"sensorSource":{"name":"OpenWeatherMap","description":null,"id":1,"create_time":"2017-10-25T23:30:37.000-0200"},"id":342,"create_time":"2017-10-25T23:30:40.000-0200"},{"name":"humidity sensor - Tumko","description":null,"latitude":12.01667,"longitude":24.6,"sensorSource":{"name":"OpenWeatherMap","description":null,"id":1,"create_time":"2017-10-25T23:30:37.000-0200"},"id":343,"create_time":"2017-10-25T23:30:40.000-0200"},{"name":"speed_wind sensor - Tumko","description":null,"latitude":12.01667,"longitude":24.6,"sensorSource":{"name":"OpenWeatherMap","description":null,"id":1,"create_time":"2017-10-25T23:30:37.000-0200"},"id":344,"create_time":"2017-10-25T23:30:40.000-0200"},{"name":"temperature sensor - Moskva","description":null,"latitude":55.761665,"longitude":37.606667,"sensorSource":{"name":"OpenWeatherMap","description":null,"id":1,"create_time":"2017-10-25T23:30:37.000-0200"},"id":345,"create_time":"2017-10-25T23:30:40.000-0200"},{"name":"pressure sensor - Moskva","description":null,"latitude":55.761665,"longitude":37.606667,"sensorSource":{"name":"OpenWeatherMap","description":null,"id":1,"create_time":"2017-10-25T23:30:37.000-0200"},"id":346,"create_time":"2017-10-25T23:30:40.000-0200"},{"name":"humidity sensor - Moskva","description":null,"latitude":55.761665,"longitude":37.606667,"sensorSource":{"name":"OpenWeatherMap","description":null,"id":1,"create_time":"2017-10-25T23:30:37.000-0200"},"id":347,"create_time":"2017-10-25T23:30:40.000-0200"},{"name":"speed_wind sensor - Moskva","description":null,"latitude":55.761665,"longitude":37.606667,"sensorSource":{"name":"OpenWeatherMap","description":null,"id":1,"create_time":"2017-10-25T23:30:37.000-0200"},"id":348,"create_time":"2017-10-25T23:30:40.000-0200"},{"name":"temperature sensor - Japan","description":null,"latitude":35.68536,"longitude":139.753098,"sensorSource":{"name":"OpenWeatherMap","description":null,"id":1,"create_time":"2017-10-25T23:30:37.000-0200"},"id":349,"create_time":"2017-10-25T23:30:40.000-0200"},{"name":"pressure sensor - Japan","description":null,"latitude":35.68536,"longitude":139.753098,"sensorSource":{"name":"OpenWeatherMap","description":null,"id":1,"create_time":"2017-10-25T23:30:37.000-0200"},"id":350,"create_time":"2017-10-25T23:30:40.000-0200"},{"name":"humidity sensor - Japan","description":null,"latitude":35.68536,"longitude":139.753098,"sensorSource":{"name":"OpenWeatherMap","description":null,"id":1,"create_time":"2017-10-25T23:30:37.000-0200"},"id":351,"create_time":"2017-10-25T23:30:40.000-0200"},{"name":"speed_wind sensor - Japan","description":null,"latitude":35.68536,"longitude":139.753098,"sensorSource":{"name":"OpenWeatherMap","description":null,"id":1,"create_time":"2017-10-25T23:30:37.000-0200"},"id":352,"create_time":"2017-10-25T23:30:40.000-0200"},{"name":"temperature sensor - Hokkaid?","description":null,"latitude":43.06451,"longitude":141.346603,"sensorSource":{"name":"OpenWeatherMap","description":null,"id":1,"create_time":"2017-10-25T23:30:37.000-0200"},"id":353,"create_time":"2017-10-25T23:30:40.000-0200"},{"name":"pressure sensor - Hokkaid?","description":null,"latitude":43.06451,"longitude":141.346603,"sensorSource":{"name":"OpenWeatherMap","description":null,"id":1,"create_time":"2017-10-25T23:30:37.000-0200"},"id":354,"create_time":"2017-10-25T23:30:40.000-0200"},{"name":"humidity sensor - Hokkaid?","description":null,"latitude":43.06451,"longitude":141.346603,"sensorSource":{"name":"OpenWeatherMap","description":null,"id":1,"create_time":"2017-10-25T23:30:37.000-0200"},"id":355,"create_time":"2017-10-25T23:30:40.000-0200"},{"name":"speed_wind sensor - Hokkaid?","description":null,"latitude":43.06451,"longitude":141.346603,"sensorSource":{"name":"OpenWeatherMap","description":null,"id":1,"create_time":"2017-10-25T23:30:37.000-0200"},"id":356,"create_time":"2017-10-25T23:30:40.000-0200"},{"name":"temperature sensor - Sanggrahan","description":null,"latitude":-7.46056,"longitude":110.246109,"sensorSource":{"name":"OpenWeatherMap","description":null,"id":1,"create_time":"2017-10-25T23:30:37.000-0200"},"id":357,"create_time":"2017-10-25T23:30:40.000-0200"},{"name":"pressure sensor - Sanggrahan","description":null,"latitude":-7.46056,"longitude":110.246109,"sensorSource":{"name":"OpenWeatherMap","description":null,"id":1,"create_time":"2017-10-25T23:30:37.000-0200"},"id":358,"create_time":"2017-10-25T23:30:40.000-0200"},{"name":"humidity sensor - Sanggrahan","description":null,"latitude":-7.46056,"longitude":110.246109,"sensorSource":{"name":"OpenWeatherMap","description":null,"id":1,"create_time":"2017-10-25T23:30:37.000-0200"},"id":359,"create_time":"2017-10-25T23:30:40.000-0200"},{"name":"speed_wind sensor - Sanggrahan","description":null,"latitude":-7.46056,"longitude":110.246109,"sensorSource":{"name":"OpenWeatherMap","description":null,"id":1,"create_time":"2017-10-25T23:30:37.000-0200"},"id":360,"create_time":"2017-10-25T23:30:40.000-0200"},{"name":"temperature sensor - Karangmangle","description":null,"latitude":-7.43028,"longitude":109.0075,"sensorSource":{"name":"OpenWeatherMap","description":null,"id":1,"create_time":"2017-10-25T23:30:37.000-0200"},"id":361,"create_time":"2017-10-25T23:30:40.000-0200"},{"name":"pressure sensor - Karangmangle","description":null,"latitude":-7.43028,"longitude":109.0075,"sensorSource":{"name":"OpenWeatherMap","description":null,"id":1,"create_time":"2017-10-25T23:30:37.000-0200"},"id":362,"create_time":"2017-10-25T23:30:40.000-0200"},{"name":"humidity sensor - Karangmangle","description":null,"latitude":-7.43028,"longitude":109.0075,"sensorSource":{"name":"OpenWeatherMap","description":null,"id":1,"create_time":"2017-10-25T23:30:37.000-0200"},"id":363,"create_time":"2017-10-25T23:30:40.000-0200"},{"name":"speed_wind sensor - Karangmangle","description":null,"latitude":-7.43028,"longitude":109.0075,"sensorSource":{"name":"OpenWeatherMap","description":null,"id":1,"create_time":"2017-10-25T23:30:37.000-0200"},"id":364,"create_time":"2017-10-25T23:30:40.000-0200"},{"name":"temperature sensor - Sheremetyevskiy","description":null,"latitude":55.98,"longitude":37.491112,"sensorSource":{"name":"OpenWeatherMap","description":null,"id":1,"create_time":"2017-10-25T23:30:37.000-0200"},"id":365,"create_time":"2017-10-25T23:30:40.000-0200"},{"name":"pressure sensor - Sheremetyevskiy","description":null,"latitude":55.98,"longitude":37.491112,"sensorSource":{"name":"OpenWeatherMap","description":null,"id":1,"create_time":"2017-10-25T23:30:37.000-0200"},"id":366,"create_time":"2017-10-25T23:30:40.000-0200"},{"name":"humidity sensor - Sheremetyevskiy","description":null,"latitude":55.98,"longitude":37.491112,"sensorSource":{"name":"OpenWeatherMap","description":null,"id":1,"create_time":"2017-10-25T23:30:37.000-0200"},"id":367,"create_time":"2017-10-25T23:30:40.000-0200"},{"name":"speed_wind sensor - Sheremetyevskiy","description":null,"latitude":55.98,"longitude":37.491112,"sensorSource":{"name":"OpenWeatherMap","description":null,"id":1,"create_time":"2017-10-25T23:30:37.000-0200"},"id":368,"create_time":"2017-10-25T23:30:40.000-0200"},{"name":"temperature sensor - Yershovo","description":null,"latitude":55.771111,"longitude":36.858055,"sensorSource":{"name":"OpenWeatherMap","description":null,"id":1,"create_time":"2017-10-25T23:30:37.000-0200"},"id":369,"create_time":"2017-10-25T23:30:40.000-0200"},{"name":"pressure sensor - Yershovo","description":null,"latitude":55.771111,"longitude":36.858055,"sensorSource":{"name":"OpenWeatherMap","description":null,"id":1,"create_time":"2017-10-25T23:30:37.000-0200"},"id":370,"create_time":"2017-10-25T23:30:40.000-0200"},{"name":"humidity sensor - Yershovo","description":null,"latitude":55.771111,"longitude":36.858055,"sensorSource":{"name":"OpenWeatherMap","description":null,"id":1,"create_time":"2017-10-25T23:30:37.000-0200"},"id":371,"create_time":"2017-10-25T23:30:40.000-0200"},{"name":"speed_wind sensor - Yershovo","description":null,"latitude":55.771111,"longitude":36.858055,"sensorSource":{"name":"OpenWeatherMap","description":null,"id":1,"create_time":"2017-10-25T23:30:37.000-0200"},"id":372,"create_time":"2017-10-25T23:30:40.000-0200"},{"name":"temperature sensor - Znamenka","description":null,"latitude":52.896671,"longitude":35.981392,"sensorSource":{"name":"OpenWeatherMap","description":null,"id":1,"create_time":"2017-10-25T23:30:37.000-0200"},"id":373,"create_time":"2017-10-25T23:30:40.000-0200"},{"name":"pressure sensor - Znamenka","description":null,"latitude":52.896671,"longitude":35.981392,"sensorSource":{"name":"OpenWeatherMap","description":null,"id":1,"create_time":"2017-10-25T23:30:37.000-0200"},"id":374,"create_time":"2017-10-25T23:30:40.000-0200"},{"name":"humidity sensor - Znamenka","description":null,"latitude":52.896671,"longitude":35.981392,"sensorSource":{"name":"OpenWeatherMap","description":null,"id":1,"create_time":"2017-10-25T23:30:37.000-0200"},